index,grid_id,place_id,name,category,lat,lon
1,39,2098534027,어반플랜트 한남대교점,카페,37.52443305,127.0159282
2,39,1352171566,새말카페,카페,37.52441504,127.0158716
9,68,1348877274,오엔 카페앤레스토랑,음식점,37.52770254,127.0176643
15,77,1539467994,거암아트홀,문화시설,37.5195095,127.0191081
16,77,1469290862,스와니예,음식점,37.5195104,127.0191058
17,77,1720787888,키이로,음식점,37.5195969,127.0190832
18,77,1713781540,레이호스시,음식점,37.51953115,127.0189305
19,77,1002691983,태번38,음식점,37.51977258,127.0191828
20,77,335870716,레귬,음식점,37.51945814,127.0191194
21,77,817332233,카페제로원,카페,37.51989602,127.0191659
29,77,545297366,신사스퀘어약국,약국,37.51960321,127.0190719
34,78,27587555,삼정하누펍,음식점,37.52108805,127.0191401
44,96,606945581,신사역 신분당선,지하철역,37.51608201,127.0195517
49,96,1053416793,청기와타운 신사역점,음식점,37.51518717,127.0203636
50,96,10686549,마산할매간장게장,음식점,37.51547483,127.0189328
51,96,8118369,파리바게뜨 카페신사점,음식점,37.51553063,127.0193084
52,96,2589346,거평치킨,음식점,37.51586206,127.0201885
53,96,39163423,오즈테이블 신사점,음식점,37.51578293,127.0192293
54,96,21420148,퍼스트푸드,음식점,37.5161107,127.0203922
55,96,1539001784,빽다방 빵연구소 신사사거리점,카페,37.51577572,127.0192327
101,96,1761514229,은혜약국,약국,37.51576401,127.0191829
102,96,13507405,신사온누리약국,약국,37.51519528,127.0203648
103,96,324453408,하리약국,약국,37.51586927,127.0201568
104,96,16931649,강남퍼스트약국,약국,37.5161035,127.0203469
105,96,941249999,씨티약국,약국,37.5149882,127.0195062
106,97,27498646,GS25 G신사남서울점,편의점,37.51607131,127.0188674
107,97,16677352,그린편의점,편의점,37.51686764,127.0197951
112,97,21160633,신사역 3호선,지하철역,37.51643598,127.0203086
119,97,1407082787,꿉당 신사점,음식점,37.5166236,127.0190406
120,97,20545308,앙평신내서울해장국,음식점,37.51664074,127.0189083
121,97,1978879550,153구포국수 신사점,음식점,37.51680549,127.0196911
122,97,1187731896,씨엘33,음식점,37.51684602,127.019768
123,97,907022125,마운틴가라오케,음식점,37.51685503,127.0197951
124,97,911470323,호시,음식점,37.51677027,127.0201876
126,97,791976931,신빌딩구내식당,음식점,37.51678109,127.0201073
127,97,1939055922,우주에서온샐러드,음식점,37.51677389,127.0201005
128,97,1495084339,마리왕 신사역점,음식점,37.51643147,127.0203289
129,97,689203779,호두당,음식점,37.51643147,127.0203289
130,97,972844897,더아담 신사역점,음식점,37.51643237,127.0203267
132,97,755470510,라운지501,음식점,37.51685683,127.0197997
135,97,20542106,파스쿠찌 신사역점,카페,37.51637406,127.0187634
136,97,1383752491,이에스티커피,카페,37.51678109,127.0201073
137,97,531599063,은탑플래닝,카페,37.51685593,127.0197985
184,97,1165425094,타워약국,약국,37.51678107,127.0202374
187,97,27489930,오월애약국,약국,37.51686043,127.0198042
188,98,16906539,GS25 신사대로점,편의점,37.51681012,127.0189354
189,98,12296470,GS25 신사현대점,편의점,37.51718116,127.0200124
210,98,8621048,홍미닭발 신사본점,음식점,37.51705316,127.0203325
211,98,705044236,꼬끄더그릴,음식점,37.51752171,127.020146
212,98,10360096,마산옥,음식점,37.51723878,127.0202432
214,98,333269324,신사만장어,음식점,37.51739737,127.0201663
215,98,1837487854,청담동마녀김밥 신사역점,음식점,37.5167921,127.0189354
216,98,1257664984,고메램 신사점,음식점,37.51737752,127.0203269
217,98,148015720,미미면가 2호점,음식점,37.51739557,127.0201572
218,98,1418233160,장미정 신사점,음식점,37.51726221,127.0202353
219,98,131280546,두사라 현,음식점,37.51738656,127.0201572
221,98,743633335,텐타이,음식점,37.51693246,127.0201074
222,98,1163100295,프랭크버거 신사역점,음식점,37.51674705,127.0189581
223,98,855777676,타워식당,음식점,37.51690722,127.0201854
225,98,1352829374,강남쌀국수 신사역점,음식점,37.51714607,127.0196957
227,98,26983298,원해치킨하우스,음식점,37.51713436,127.0197047
232,98,2138363287,더뷰라운지,음식점,37.51770381,127.0195737
233,98,1990550117,더내츄럴키친,음식점,37.51746236,127.0194967
234,98,1683395936,까페보스꼬,카페,37.5171309,127.0187907
235,98,2071612713,베러댄커피,카페,37.51707581,127.0196006
236,98,185608032,청담커피 신사역점,카페,37.51694057,127.0200983
237,98,2002810003,요거트월드 신사역점,카페,37.51683355,127.0188913
238,98,1577725527,라스페스,카페,37.51739737,127.0201663
239,98,1614950251,미미고찹쌀꽈배기 신사역점,카페,37.5171345,127.0188111
240,98,80127086,스플래쉬블랙,카페,37.51718118,127.019845
241,98,920455095,카페다소니,카페,37.5171309,127.0187862
242,98,889112477,텍사스파파크레페 신사점,카페,37.51741911,127.019474
243,98,2022260445,카페리빈,카페,37.5171309,127.0187907
292,98,1153124657,신사스타약국,약국,37.51712368,127.0188507
293,98,498856692,싱싱온누리약국,약국,37.51711631,127.0198404
295,99,514416019,세븐일레븐 신강남신사점,편의점,37.51858134,127.0198567
301,99,1251911,디에이치갤러리,문화시설,37.51826606,127.0194618
307,99,2073285111,신사모소리,음식점,37.51825154,127.0200444
308,99,26102199,구르메 본점,음식점,37.51832364,127.0199177
309,99,1249116042,갓포우오,음식점,37.51800284,127.0201846
310,99,604735311,취향의공간,음식점,37.51769652,127.0200759
311,99,1947008282,호보식당 신사역직영점,음식점,37.51821822,127.0199821
312,99,2145719101,미분당 신사점,음식점,37.5178623,127.0200805
313,99,1014576833,만수정 강남점,음식점,37.51788943,127.0194889
314,99,15824622,용이네술집,음식점,37.51804255,127.0197875
315,99,12743900,유쾌한접시 3호점,음식점,37.51770012,127.0200804
316,99,1419615276,이월육일,음식점,37.51788674,127.0194368
317,99,624845749,화작,음식점,37.51796874,127.0193497
318,99,1237997822,송주담,음식점,37.51802634,127.0197502
319,99,622252118,흥,음식점,37.51798495,127.0193882
320,99,793460275,블랙국밥 신사점,음식점,37.51768931,127.0200589
321,99,21332306,신촌설렁탕 신사점,음식점,37.51788763,127.0194877
322,99,1526832516,오마카세육,음식점,37.51788223,127.0194334
323,99,16004904,J바,음식점,37.51774338,127.0200487
324,99,1100423852,갓푸우오,음식점,37.51799924,127.02018
327,99,2023188507,매머드익스프레스 신사동점,카페,37.51803535,127.0197683
328,99,1730879977,커피나인 신사,카페,37.5178614,127.0200805
329,99,1543104174,미니달아 신사동가로수길점,카페,37.51800648,127.0199809
331,99,2051262862,핑코,카페,37.51800828,127.0200047
355,100,1262079557,송쉐프 본점,음식점,37.51930038,127.0196148
356,100,1059348837,야키니쿠규,음식점,37.51895442,127.0194903
357,100,545951940,신사꽃게당,음식점,37.51940488,127.0197166
358,100,1390828006,신비갈비살 본점,음식점,37.519121,127.0201215
359,100,103781687,청자매운소돼지갈비찜,음식점,37.51911657,127.0196736
360,100,1618929112,날리,음식점,37.51915258,127.0198184
361,100,18052112,러쉬바,음식점,37.51897957,127.019936
363,100,21720110,퀸실내포차,음식점,37.51876333,127.0199314
364,100,1184099725,아로보서울,음식점,37.51912558,127.0196317
365,100,16587015,원조옛날순대전문점,음식점,37.51907327,127.0199993
366,100,1108576475,신사그라제,음식점,37.51864799,127.0199992
367,100,795694316,초코동,음식점,37.51891563,127.0197753
368,100,1928726261,피키오,음식점,37.51910756,127.0196871
369,100,2121406280,서리달,음식점,37.51912377,127.0196871
370,100,1906932518,숨후카바,음식점,37.5186525,127.0200049
372,100,1382945760,칠링 신사,음식점,37.51869302,127.0201395
373,100,1124689656,재즈잇업,음식점,37.51887141,127.0201859
374,100,598254031,중식포차,음식점,37.51934003,127.0196148
375,100,172904464,빈스드림,카페,37.51917514,127.01966
385,101,107987969,예술가방,문화시설,37.51987336,127.0199543
408,102,12296285,GS25 신사강남점,편의점,37.52109879,127.0195972
414,102,2041523416,개오망크리에이티브스튜디오,문화시설,37.5209465,127.0197272
419,102,23203958,김북순큰남비집 신사본점,음식점,37.52067798,127.0198561
420,102,1416620404,카이센동우니도 신사본점,음식점,37.52062571,127.0198923
421,102,118191587,직화장인 신사점,음식점,37.52069333,127.0196095
422,102,485505101,이목스모크다이닝,음식점,37.52114839,127.0193076
423,102,1092032176,트라가 가로수길점,음식점,37.52050411,127.0196649
424,102,2081009536,게집,음식점,37.52108344,127.019751
425,102,21237816,알집모닝메이트,음식점,37.52073031,127.0194138
426,102,1206870141,복자네대박났네,음식점,37.52074562,127.0194296
428,102,26572826,김치&보쌈,음식점,37.52073472,127.0199726
429,102,1848228515,그레이그리스트밀,카페,37.52066264,127.0199387
430,102,1528013748,소르비,카페,37.5209474,127.0197283
437,103,643478986,퍼니처 아트 갤러리,문화시설,37.52212952,127.0196608
442,103,17266666,까사밀 레스토랑,음식점,37.52216558,127.0195545
444,103,22109074,캘리포니아호프치킨,음식점,37.52187631,127.0198508
446,103,488323017,라까사호텔 서울 호아,음식점,37.52214035,127.0195477
447,103,760661261,보나로,음식점,37.52164386,127.0198247
449,103,713711124,로이신사,음식점,37.52164657,127.0197738
450,103,49553465,타스,음식점,37.52163214,127.0198462
451,103,1074524542,떡볶이까페겁,음식점,37.52187,127.0198824
462,104,410680676,북스테이지,음식점,37.52236018,127.0196722
463,104,1539942176,호아 가로수길,음식점,37.52236018,127.0196608
464,106,2078342965,CU 압구정미성점,편의점,37.52428118,127.0192677
475,106,1179137932,미우,음식점,37.52482173,127.0196015
476,106,173316874,매란방 압구정점,음식점,37.52434964,127.0193616
477,106,21353178,홍종흔베이커리 압구정점,음식점,37.52434064,127.0193152
478,106,26935247,이명환 오메기랑떡이랑,음식점,37.52477488,127.01958
479,106,8732622,강남떡집,음식점,37.52467034,127.0197248
480,106,1414200989,압구정오리,음식점,37.52464691,127.0197395
481,106,23406165,비앤에스에프앤비,음식점,37.52434604,127.019331
482,106,143802003,헤리턴스카페 압구정점,카페,37.52466224,127.0196954
485,106,1576194639,연두약국,약국,37.52440822,127.0192654
486,106,10414078,미성약국,약국,37.52459468,127.0195664
503,107,379454398,비키갤러리,문화시설,37.52485142,127.0198402
508,107,1045698160,미성백반,음식점,37.52478925,127.0198493
511,107,1756423816,압구정에프앤씨,음식점,37.52489018,127.0197554
513,107,20059498,틸트보드까페,카페,37.52486134,127.0197927
516,121,26153884,CU 잠원성한점,편의점,37.51161646,127.020581
529,121,1823825410,고깃집열 논현역점,음식점,37.51153902,127.020314
530,121,1927190075,채쉐프,음식점,37.51205234,127.0217076
531,121,1683036658,원더시티뉴욕컵케이크,음식점,37.51168568,127.0214372
532,121,1070254243,강씨가문의족발 논현점,음식점,37.51239837,127.021468
533,121,1650816351,라운지많,음식점,37.51204873,127.0217348
534,121,631096811,조선소고기,음식점,37.51153902,127.020314
535,121,10860331,하이호프광장,음식점,37.51154802,127.0203366
536,121,390191997,논현김밥,음식점,37.51129116,127.0207924
537,121,26410041,스타벅스 논현역점,카페,37.51143987,127.0205402
538,121,1071474205,커피빈 논현역8번출구점,카페,37.51201922,127.0205121
539,121,503592019,미스콩샌드커피,카페,37.51177504,127.0205403
540,121,599060127,이시스커피,카페,37.51201089,127.0217585
575,122,2023829447,CU 논현역드림점,편의점,37.51278951,127.0209229
583,122,27376325,바베네,음식점,37.51287235,127.0211966
585,122,933141116,케이웍 논현동점,음식점,37.51263801,127.0216038
586,122,501996153,컬러풀,음식점,37.51287415,127.0211966
587,122,21359574,강남웨딩 출장부페,음식점,37.51288136,127.0212147
588,122,1568813321,케이웍,음식점,37.51265964,127.0215789
600,123,16330125,세븐일레븐 논현학나래점,편의점,37.51316604,127.0214048
626,123,467840260,페페신사,음식점,37.51367449,127.0197762
627,123,97370963,본가마순대국,음식점,37.51334085,127.0213212
628,123,7974996,스타벅스 신사역성일빌딩점,카페,37.51393383,127.0206223
629,123,947570803,카페33,카페,37.51365625,127.0210295
630,123,794827557,주식회사 푸른통상 카페신사,카페,37.51367359,127.0197762
636,124,19207895,CU 신사렉스점,편의점,37.51439519,127.0204053
656,124,26781713,에이루트,문화시설,37.5142833,127.0213328
662,124,980076754,인량 훠궈,음식점,37.51401662,127.0212286
663,124,1772878695,퀴즈노스 신사위워크점,음식점,37.51420053,127.0206134
664,124,334915792,신사우동,음식점,37.51473758,127.0203319
665,124,1254480155,블루스하우스,음식점,37.51488252,127.0210162
667,124,2133427173,블랙카페,카페,37.51488252,127.0210162
694,124,1411865692,민트약국,약국,37.5144988,127.0203827
708,125,25040567,부산아구,음식점,37.51579349,127.0207179
710,125,1214127533,향방,음식점,37.51576466,127.0207088
713,125,1068841095,진,음식점,37.51560338,127.0207031
714,125,1029907935,부산집,음식점,37.51577907,127.0207043
756,126,17056593,GS25 논현행운점,편의점,37.51602413,127.0208175
777,126,1719987589,아구본가첨벙 신사본점,음식점,37.51584571,127.0209147
778,126,1289286666,김가네황금구이가,음식점,37.51584391,127.0209351
779,126,902200401,평안도식당 신사점,음식점,37.51603855,127.0207971
790,126,26395435,스타벅스 신사역점,카페,37.51622596,127.0207677
840,126,25817808,트리플약국,약국,37.51615932,127.0205754
841,127,566232569,CU 신사성환점,편의점,37.51708735,127.0206277
862,127,791775664,천미미,음식점,37.51733246,127.0203835
864,127,27390693,응수수산,음식점,37.51746576,127.0206505
867,127,1866857586,롱타임노씨 신사점,음식점,37.51742702,127.020655
868,127,228973634,돼봉삼겹살 신사점,음식점,37.5173864,127.0210961
870,127,875073447,도톤보리 서울,음식점,37.5171504,127.020699
872,127,8313417,배제현의웰빙 낙지한마리수제비 강남신사본점,음식점,37.51751616,127.0209717
873,127,1114352509,닭한마리감자탕 신사본점,음식점,37.51715942,127.0206775
875,127,1526832757,무쇠김치삼겹 신사점,음식점,37.51737929,127.0204966
876,127,9824246,북경반점,음식점,37.51720895,127.0208076
877,127,973006164,청담동 순도리 신사점,음식점,37.51744054,127.0206437
879,127,372391352,바다를훔친언니,음식점,37.51758024,127.0203892
880,127,1750513173,배가네목포집,음식점,37.51729631,127.0210282
883,127,361574711,인쌩맥주 신사역점,음식점,37.51732244,127.0209852
888,127,598221418,신사마차,음식점,37.51733236,127.0209717
889,127,1990083457,상하이블룸 신사점,음식점,37.51747654,127.020836
890,127,2067255601,몬스터홀덤펍,음식점,37.51749817,127.0208054
894,127,1116796950,도리연닭도리탕,음식점,37.5173927,127.0210984
898,127,1445600338,소일젤라또,음식점,37.51701433,127.0208505
903,127,573794987,빅스텍,음식점,37.51744053,127.020655
906,127,346120937,에스에이치더힐,음식점,37.51740542,127.0205
907,127,1904517202,홈즈앤루팡 신사가로수길점,카페,37.51737929,127.0205011
908,127,100026790,카페로얄마카롱 신사역점,카페,37.51715495,127.0204513
913,127,1890578840,쁘아송 신사점,카페,37.51701162,127.0208494
914,127,21414397,델타카페,카페,37.51688915,127.0204965
962,127,1153678451,가나안약국,약국,37.51701162,127.0208494
963,127,1021944500,아이디약국,약국,37.51696119,127.0206899
965,127,12117430,신사약국,약국,37.51686752,127.0205281
980,128,15400439,아이피티,문화시설,37.51815412,127.0206959
981,128,370941282,에이치앤이기획,문화시설,37.51782969,127.0210894
987,128,7847225,동인동,음식점,37.51807849,127.0203927
994,128,8105143,e청우참치,음식점,37.51817125,127.0206631
995,128,2057523686,크라운돼지,음식점,37.51852177,127.0204698
996,128,1277515634,치보 강남신사점,음식점,37.51801444,127.0208293
998,128,27252553,순정족발 신사본점,음식점,37.51811802,127.0210624
1001,128,590679717,스시소기,음식점,37.51801444,127.0208293
1002,128,17665721,자주식당,음식점,37.51841003,127.0205421
1003,128,24008760,전주현대옥 신사가로수길점,음식점,37.51813433,127.0205364
1004,128,20752071,두사라,음식점,37.517801,127.0203112
1008,128,24766095,영동소금구이 신사점,음식점,37.51833077,127.0204109
1010,128,13496046,뻘,음식점,37.5179811,127.0208621
1013,128,936033187,신사교자냉삼,음식점,37.51764769,127.0210622
1014,128,732944840,낭낙,음식점,37.51841004,127.0205319
1018,128,26870059,낭만옵빠 신사점,음식점,37.51821186,127.0202751
1019,128,24709876,피그닉,음식점,37.51843252,127.020757
1021,128,868391417,복싱타이거,음식점,37.51822988,127.0202661
1024,128,1192803161,미몽 신사역점,음식점,37.51800636,127.02068
1025,128,176615415,백소정 강남신사점,음식점,37.51758284,127.020957
1026,128,980776221,고우 신사점,음식점,37.5181091,127.0205273
1028,128,140005260,맹그르브삼겹살 2호점,음식점,37.51763868,127.0210736
1029,128,2009273450,호야,음식점,37.51842171,127.0207254
1031,128,1027198862,에이쓰리바우트커피,카페,37.51798023,127.0207038
1032,128,891042256,누베이스,카페,37.51822798,127.0208237
1033,128,70070354,플롭,카페,37.51786032,127.0210951
1038,128,21414775,마농,카페,37.51831995,127.0204335
1039,128,429160481,썸 라이브바,카페,37.51812532,127.0205285
1040,128,659845676,할로비치,카페,37.51821086,127.020826
1062,129,1675445898,마크앤스페이스 신사점,문화시설,37.51914248,127.0209179
1063,129,24931414,아트스페이스남케이,문화시설,37.51895414,127.0210988
1068,129,10917492,해남집,음식점,37.51935074,127.0201804
1069,129,2136148310,우와 신사점,음식점,37.51915251,127.0202708
1070,129,12637514,딸부자네불백 신사본점,음식점,37.51930563,127.0205311
1074,129,267115983,돈불리제담,음식점,37.51877491,127.0207176
1080,129,1159737893,대봉칼국수보쌈,음식점,37.51877402,127.0206689
1081,129,459883444,삼바리,음식점,37.5187668,127.0206915
1082,129,1041199912,육회담,음식점,37.5191074,127.0205762
1083,129,790278676,키보 재즈킷사,음식점,37.51922005,127.0204349
1084,129,96205221,넛츠비어 가로수길직영점,음식점,37.51917492,127.0209247
1085,129,843077664,솔솥 신사점,음식점,37.5187451,127.0211655
1088,129,646890643,금별맥주 강남신사점,음식점,37.51872978,127.0211666
1091,129,1171238408,조선펍차 신사본점,음식점,37.51881004,127.0207492
1092,129,966956330,올디스타코 신사점,음식점,37.51925603,127.0208229
1093,129,420158801,플라워아티장베이커리 가로수,음식점,37.5189181,127.0211078
1097,129,386557127,등촌샤브칼국수 신사가로수길점,음식점,37.51877401,127.0207323
1100,129,868985255,강남실비횟집,음식점,37.51878932,127.0207424
1102,129,1820098242,장흥집 신사점,음식점,37.51855413,127.0209143
1103,129,1480728090,담소소사골순대육개장 신사1호점,음식점,37.51869289,127.0208759
1104,129,2099323174,매드하우스 바이 옥토버훼스트,음식점,37.51917492,127.0209247
1109,129,19802716,본도시락 신사역점,음식점,37.51948582,127.0206216
1110,129,703712454,켘켘,음식점,37.5187803,127.020782
1111,129,1785536960,나따오비까 신사점,카페,37.51936868,127.0206781
1112,129,815154481,플라워베이커리 가로수길점,카페,37.5189217,127.0211033
1113,129,1733612467,이치서울,카페,37.51927139,127.0205288
1114,129,1464740025,컴포즈커피 강남시장점,카페,37.51878572,127.0207526
1117,129,21571775,더블드립커피,카페,37.51936868,127.0206872
1127,130,1826758447,신사하우스,문화시설,37.52040484,127.0206332
1135,130,1402068738,정돈 신사점,음식점,37.51975064,127.0210447
1136,130,479540433,우오하나,음식점,37.5198913,127.0204249
1138,130,18324313,미미면가 본점,음식점,37.52005336,127.0211036
1140,130,1332784474,딩딤1968,음식점,37.51996329,127.0209385
1142,130,483480462,타코앤칠리,음식점,37.51978767,127.0205074
1145,130,643708043,멘츠루 신사점,음식점,37.52025084,127.0201886
1146,130,204763804,애시드하우스,음식점,37.51993641,127.0200935
1147,130,1021627981,교텐,음식점,37.51988406,127.020633
1149,130,1947749247,소각,음식점,37.51958051,127.0201182
1153,130,1473026211,파랑해녀집 신사점,음식점,37.51963904,127.0203162
1154,130,2050553837,투올더드리머스,음식점,37.5198048,127.0204916
1156,130,524009805,문빔와인스튜디오,음식점,37.51960304,127.02009
1158,130,459715402,나항,음식점,37.5195489,127.0205594
1159,130,789634232,타츠야,음식점,37.51924256,127.020565
1160,130,1352502434,세상의모든바베큐,음식점,37.51949299,127.0208456
1161,130,269130868,신사랑,음식점,37.51952187,127.0205741
1162,130,1506111467,스위시 신사점,음식점,37.52000665,127.0203152
1163,130,565306379,스택,음식점,37.51926052,127.0209043
1164,130,208235840,쉘위댄스,음식점,37.51922457,127.020384
1165,130,1626611035,다래케이크,음식점,37.52010754,127.0204408
1166,130,1887849250,대복우육면,음식점,37.52021571,127.0201806
1167,130,222306115,청년도야지,음식점,37.51913442,127.0206373
1169,130,280071417,당옥,카페,37.52008952,127.0204634
1172,130,880411321,팬케이크샵 가로수길점,카페,37.52022201,127.0201818
1173,130,221287732,티이,카페,37.51999764,127.0203163
1174,130,617391608,타프 에스프레소바,카페,37.51956692,127.0205764
1175,130,1605217319,카페구오,카페,37.51956151,127.0205945
1176,130,1840779900,타만타,카페,37.52039492,127.0206501
1177,130,24009155,카페아르티코,카페,37.51975063,127.0210674
1189,131,17944608,예술만세,문화시설,37.52070212,127.0209138
1209,131,675576738,유니드마이요거트 신사점,카페,37.52072018,127.0207011
1211,132,10107269,CU 신사드림점,편의점,37.52199252,127.019973
1219,132,17302398,리브라이브,문화시설,37.52213294,127.0207332
1221,132,1104467407,인딕슬로우,음식점,37.52185911,127.0203485
1222,132,119258632,패티앤베지스 타번,음식점,37.52200239,127.020215
1223,132,8016418,와라쿠,음식점,37.52210772,127.0207241
1224,132,1243908002,르오뇽,음식점,37.521787,127.0205295
1225,132,1814907897,신사참숯불고기,음식점,37.52222313,127.0202445
1227,132,988561605,면육당,음식점,37.52171933,127.0210193
1228,132,1459924300,핀치브런치바,음식점,37.52149506,127.0205826
1230,132,1315657373,테보,음식점,37.52196361,127.0204413
1231,132,181729475,퍼시픽스탠다드,음식점,37.52177434,127.0207919
1232,132,1274715882,라이스투미츄,음식점,37.52189875,127.0203338
1234,132,1537857524,가주치킨,음식점,37.521504,127.0209955
1236,132,1402769802,팬더룸,음식점,37.52152022,127.021
1239,132,353519471,빈터커피 신사점,카페,37.52166544,127.0200622
1240,132,17357574,스티머스커피팩토리,카페,37.52199252,127.019973
1241,132,1436126257,먼스미티,카페,37.5215491,127.0207014
1242,132,1181141443,맘껏,카페,37.5215067,127.0210022
1243,132,1529235448,카페4길25,카페,37.52144817,127.0207918
1244,132,951388793,바네,카페,37.52177979,127.0205295
1245,132,1577155694,더블크러플 유니온,카페,37.521504,127.0209955
1246,132,23104687,마깡띤느,카페,37.52204292,127.0203078
1270,133,476435584,온기정,음식점,37.52219779,127.020878
1272,133,14091104,산호,음식점,37.52232402,127.0203848
1273,133,1850423175,르포트13,음식점,37.52233289,127.0211654
1274,133,8669196,구스테이크528,음식점,37.52274746,127.020532
1278,133,233433419,삐아프,음식점,37.52235102,127.0205206
1279,133,888714552,원조마포소금구이 강남점,음식점,37.52290056,127.0209732
1280,133,1779951951,챕터원,음식점,37.52270682,127.0211123
1284,133,60214005,분식하우스,음식점,37.52260594,127.020903
1285,133,1230617192,오토김밥 신사직영점,음식점,37.52285826,127.0206655
1287,133,21356003,합 신사점,음식점,37.52224288,127.0206563
1288,133,427537425,HON 스키야키 신사점 ( HON 528 ),음식점,37.52287356,127.0207809
1289,133,856670083,블그레,음식점,37.52248428,127.0210251
1290,133,1041235389,스시칸,음식점,37.52288891,127.0205999
1293,133,553555390,브리온,음식점,37.52300693,127.0206339
1297,133,20355094,카페포엠 가로수길점,카페,37.52227075,127.0210126
1298,133,1232782573,카페트리타,카페,37.52206081,127.0210386
1300,133,628995912,마카롱쿠튀르,카페,37.5223456,127.0206246
1301,133,209318672,카페 씨잌,카페,37.52248609,127.0210184
1303,133,487517180,525신사,카페,37.52231677,127.0206111
1304,133,114307483,더스테어스,카페,37.52248609,127.0210229
1308,133,1567595359,가로수길약국,약국,37.52288083,127.0204449
1328,134,19808177,화인푸드,음식점,37.52300869,127.0209099
1329,134,1586896781,투썸플레이스 신사세로수길점,카페,37.52322759,127.0211306
1333,135,7969050,신사중학교,학교,37.52464851,127.0209239
1387,139,1154664376,세븐일레븐 한강르네상스잠원1호점,편의점,37.52836973,127.020486
1389,139,679037517,땅땅치킨 한강르네상스 잠원1호점,음식점,37.52836072,127.0204657
1398,151,606928302,논현역 신분당선,지하철역,37.51041252,127.0216789
1407,151,1285514239,모우리한우,음식점,37.51003392,127.0226255
1408,151,26484597,써브웨이 논현역점,음식점,37.50959351,127.0216368
1409,151,535789047,더바른정육식당 논현점,음식점,37.50977981,127.0227623
1410,151,12341696,파리바게뜨 강남영동점,음식점,37.50958526,127.0224263
1411,151,1463898638,서울생막고기,음식점,37.51005014,127.0225927
1412,151,49095933,스타벅스 논현역사거리점,카페,37.5101241,127.0221867
1413,151,96946689,로찌커피 논현점,카페,37.50968072,127.0226344
1414,151,745973907,다아는커피 본점,카페,37.51000694,127.0223382
1415,151,143097103,KT롤스터카페,카페,37.51037547,127.022241
1435,152,621367004,GS25 논현역5점,편의점,37.51053876,127.0211372
1436,152,17056592,GS25 S논현역점,편의점,37.5111982,127.0216576
1441,152,21161039,논현역 7호선,지하철역,37.5112,127.0216542
1455,152,1174806960,하이콴,음식점,37.5108208,127.0210128
1456,152,1941260769,디오니소스라운지,음식점,37.51103958,127.0218793
1457,152,582886575,섬마을,음식점,37.51089355,127.0222547
1458,152,1645465812,꼬들삼겹살,음식점,37.51073703,127.0208793
1459,152,2110693036,어가,음식점,37.51096744,127.0222186
1460,152,319104972,쿠라,음식점,37.51075053,127.0209133
1461,152,662220091,핫브레드 논현역점,음식점,37.51113247,127.0214224
1462,152,993636779,마성떡볶이 논현역점,음식점,37.5111991,127.0216576
1463,152,1653278791,빠스타gram 논현점,음식점,37.51106841,127.0218861
1464,152,388463262,에스지푸드 논현역 마성떡볶이,음식점,37.5111991,127.0216576
1465,152,562456612,투썸플레이스 논현역사거리점,카페,37.51100086,127.0217899
1466,152,586985971,카페베네 논현역점,카페,37.51145771,127.0215356
1467,152,1506442499,매머드익스프레스 논현역점,카페,37.510935,127.0222186
1468,152,1446465920,루루아카페,카페,37.51074423,127.0208884
1470,152,10060027,언약커피,카페,37.51088101,127.0218747
1487,152,274424286,나무약국,약국,37.5111991,127.0216576
1488,152,238594377,365논현역약국,약국,37.5111991,127.0216576
1489,153,8583229,GS25 논현삼익점,편의점,37.51217034,127.0219022
1503,153,826859593,스페이스학동,문화시설,37.51189007,127.0221804
1506,153,19478634,논현각,음식점,37.51195136,127.0220786
1555,154,225009338,봉산평양냉면,음식점,37.51282541,127.0216581
1557,154,11416132,애덕한정식,음식점,37.51235146,127.0218027
1558,154,21416801,무쇠막 김치찌게,음식점,37.5125668,127.0217825
1560,154,601772781,박성희가 요리하는집,음식점,37.51271005,127.0218526
1562,154,787133047,논현담설렁탕,음식점,37.51236587,127.0218028
1565,154,906441169,봉이치킨 논현점,음식점,37.51272986,127.0219024
1569,154,13330760,더테이블,카페,37.51226848,127.0222857
1570,154,169497769,에이엔아더 논현,카페,37.51311104,127.0216062
1571,154,1064414609,웨더커뮤니케이션즈,카페,37.51278389,127.0220551
1572,154,1917338645,컬러드,카페,37.5127857,127.0220517
1574,154,21414265,앤씨,카페,37.51311194,127.0215948
1619,156,2063200021,삼첩분식 서울논현점,음식점,37.51493551,127.0219268
1620,156,23120674,진진도시락,음식점,37.51483822,127.0218532
1621,156,956351199,통큰두마리찜닭 강남논현점,음식점,37.51485533,127.0219019
1622,156,1959682958,배달육회 육회한가득 신사논현점,음식점,37.51485174,127.0218431
1623,156,21332454,피자코렐,음식점,37.51480578,127.0218623
1624,156,17495717,맛고을,음식점,37.51483462,127.0218578
1636,157,71565757,논현1647,음식점,37.51527785,127.0221656
1637,157,1975925525,트랑블루1647,음식점,37.51528867,127.0221565
1638,157,1291678947,키라키라치즈케이크,음식점,37.51555272,127.0218421
1646,157,205244646,웨스키하우스,음식점,37.51528506,127.0221633
1648,157,660306746,디저트39 신사역점,카페,37.51527965,127.0221656
1650,157,832298279,이제이스 모자이크,카페,37.51559499,127.0222335
1651,157,18164654,빌커피,카페,37.51583664,127.021288
1672,158,940869070,브로드웨이씨네마25,문화시설,37.51660239,127.0218085
1673,158,241443425,무인 신사동지점,문화시설,37.51635915,127.0216772
1680,158,253182851,쁠로13,음식점,37.51612836,127.0223513
1681,158,1681136222,우찬,음식점,37.51635735,127.021675
1685,158,2102766557,육회천지,음식점,37.5164176,127.0222858
1689,158,17264815,오리사냥,음식점,37.51632305,127.0219939
1690,158,2031005599,인테그랄레,음식점,37.51599241,127.0218287
1691,158,27301513,마리아치,음식점,37.51633748,127.0219351
1692,158,16904523,왕고모,음식점,37.51658623,127.021537
1694,158,838638157,언덕,카페,37.51601679,127.0215425
1695,158,505328287,아임뮤트 논현점,카페,37.5164176,127.0222858
1696,158,16999295,S트레인,카페,37.51635554,127.0216772
1698,158,817221796,청춘커피 신사점,카페,37.51588242,127.022211
1734,158,929183362,신사굿약국,약국,37.51674745,127.0218142
1735,158,19969990,포인트약국,약국,37.51661772,127.021752
1738,159,1149454476,세븐일레븐 신사만남점,편의점,37.51754849,127.0215599
1739,159,641817846,이마트24 R신사케이타워점,편의점,37.51727823,127.0213709
1753,159,2142472552,해월동NFT아트갤러리,문화시설,37.51733228,127.0214162
1758,159,26314261,목포집 본점,음식점,37.51750527,127.0214242
1759,159,251456396,온달집 본점,음식점,37.51762775,127.0217047
1760,159,13571132,신사소곱창,음식점,37.51774673,127.0214559
1761,159,24999700,맥도날드 신사역점,음식점,37.51741508,127.0219275
1766,159,6410688,야키토리묵 신사점,음식점,37.51769271,127.0212387
1767,159,14809216,써브웨이 신사점,음식점,37.51692037,127.0222475
1769,159,218591989,은비갈비 신사본점,음식점,37.51690865,127.0222837
1770,159,1316497234,카산도 신사점,음식점,37.5166654,127.0221592
1773,159,1497106060,890,음식점,37.51754038,127.0215543
1775,159,759305224,온달집 신사본점,음식점,37.51765836,127.0218382
1776,159,1536766820,역전할머니맥주 서울신사가로수길점,음식점,37.51765757,127.0212772
1777,159,541680178,오끼참치앤스시,음식점,37.51750527,127.0214197
1779,159,1920793522,샤오당자마라탕,음식점,37.51765656,127.0218314
1780,159,21542913,세로수맥주창고,음식점,37.51760613,127.0217183
1783,159,1492101227,샤오당 쟈마라탕 신사본점,음식점,37.51766827,127.0218405
1784,159,1365980701,신사교감 신사역점,음식점,37.51758014,127.0209525
1788,159,14546064,싱싱오징어바다,음식점,37.51763868,127.0210894
1789,159,1785960060,술단지,음식점,37.51764589,127.0210769
1792,159,1684877743,부돼찌개,음식점,37.51770172,127.0212206
1793,159,391027492,마이위스키테이블,음식점,37.51738819,127.0211131
1794,159,1437977240,버터조개탕,음식점,37.5176531,127.0210713
1796,159,1731709336,코리아탑,음식점,37.51770713,127.0212297
1797,159,26508465,투썸플레이스 강남신사점,카페,37.51740889,127.0212533
1798,159,8047604,이디야커피 신사역점,카페,37.51776114,127.0214876
1799,159,1381388513,매머드커피 신사점,카페,37.51664737,127.0221841
1802,159,780017379,비반트커피,카페,37.51741151,127.0217228
1848,159,1332615730,에메랄드약국,약국,37.51684471,127.0220823
1852,159,2125018461,신사루체약국,약국,37.51732506,127.0214648
1853,159,757760982,신사드림약국,약국,37.51741151,127.0217228
1856,160,12296409,GS25 신사센터점,편의점,37.5181432,127.0212931
1882,160,7781842,샤블리,음식점,37.51807095,127.0222116
1883,160,1083471895,콴안다오,음식점,37.51848915,127.0215014
1885,160,1853910181,대봉집 신사본점,음식점,37.51826211,127.0214425
1887,160,1309217753,오레노유메 가로수길점,음식점,37.51808909,127.0215872
1888,160,26983140,신사양꼬치 가로수길본점,음식점,37.51800972,127.0220352
1890,160,828563835,경성팔일삼 본점,음식점,37.51784749,127.022276
1891,160,1887534916,김이순장춘,음식점,37.51848649,127.0212944
1896,160,10834771,인사동촌,음식점,37.5179413,127.0217184
1900,160,594985398,군자대한곱창 신사점,음식점,37.51802053,127.0220261
1901,160,104127937,크림라벨 신사점,음식점,37.51850348,127.0219674
1903,160,16271455,태공호프치킨,음식점,37.5180963,127.0215544
1904,160,18329641,본죽&비빔밥cafe 신사점,음식점,37.51787543,127.022267
1905,160,21414314,푸드카페김밥천국 신사점,음식점,37.51819097,127.0212355
1906,160,1011287043,시선 신사점,음식점,37.51775562,127.0221029
1907,160,631478701,봄의정원 가로수길점,음식점,37.51817385,127.0212038
1909,160,115977269,유가네닭갈비 신사가로수길점,음식점,37.51775382,127.022121
1910,160,1040789789,마케집 신사점,음식점,37.5179881,127.0220125
1914,160,747921700,샐러디 신사점,음식점,37.5183811,127.0210953
1916,160,14653988,문어집,음식점,37.51826211,127.0214425
1917,160,574965058,해가쭈꾸미,음식점,37.51849639,127.021334
1919,160,27511757,유쾌한접시 신사2호점,음식점,37.51794045,127.0214356
1924,160,1499306623,신사양갈비,음식점,37.51796299,127.0213768
1926,160,295419461,놀숲 신사가로수길점,카페,37.517972,127.0213621
1927,160,2119458323,식물학,카페,37.51837019,127.0216552
1931,160,163833652,언더플로우,카페,37.51826019,127.0221031
1933,160,15804700,워너커피 가로수길점,카페,37.51810711,127.0215963
1935,160,813009773,브라운코너,카페,37.51846756,127.0213453
1936,160,268447709,콘센트커피,카페,37.51848558,127.0213249
1938,160,614688241,로얄블랙,카페,37.51802053,127.0220216
1971,161,20057715,브로드웨이 뮤지컬씨어터,문화시설,37.51882431,127.0215829
1978,161,1728788067,삼창교자,음식점,37.51891438,127.0217504
1980,161,1874065715,골뱅이신사,음식점,37.51865127,127.0218408
1982,161,1967158657,콘유,음식점,37.51919727,127.0218771
1984,161,1906290282,징관청훠궈,음식점,37.518954,127.0218544
1985,161,1229874963,고반식당 가로수길점,음식점,37.51875577,127.0219223
1986,161,1878431824,포사로,음식점,37.51872705,127.0213103
1987,161,138056648,프레즈드로이,음식점,37.51913774,127.0222074
1988,161,455964341,바다공장,음식점,37.51907122,127.021402
1989,161,1419482633,태수,음식점,37.5188233,127.0221655
1990,161,490070779,밀떡 팩토리 본점,음식점,37.51884582,127.0221711
1991,161,1058937177,유희,음식점,37.51937749,127.0217528
1997,161,1690264000,획,음식점,37.51880629,127.021592
1998,161,1899306211,온다,음식점,37.51903325,127.0220897
2002,161,814291373,목구멍 서울가로수길점,음식점,37.51874493,127.0220591
2003,161,1791320147,토우베,음식점,37.51931444,127.0216408
2004,161,844526706,평화로운집 신사가로수길점,음식점,37.51896842,127.0218409
2005,161,1766550290,식호락,음식점,37.51889535,127.0223363
2008,161,603347085,스시리카이,음식점,37.51902881,127.021747
2010,161,427373173,아고야 신사가로수길점,음식점,37.51919547,127.0218749
2011,161,1328644596,까브테라스,음식점,37.51875588,127.0213114
2013,161,2069996483,이자카야화분,음식점,37.51893604,127.0215287
2026,161,1866180714,로알드앤달,카페,37.51952172,127.0213829
2027,161,126603087,아르보떼,카페,37.51877735,127.0221564
2029,161,410980988,아뚜아르시,카페,37.51901177,127.0212934
2030,161,1071735673,아르보떼뮤리카페,카페,37.5188242,127.0221757
2031,161,305448901,디스타 피에스타 룸,카페,37.51868743,127.0211938
2045,162,826888949,구미곱창 신사본점,음식점,37.51952882,127.0219756
2048,162,700133104,올드페리도넛 가로수길점,음식점,37.52040473,127.0212553
2051,162,1609700752,준이자카야 신사본점,음식점,37.51953426,127.0218139
2052,162,1860038104,투헌드레드,음식점,37.51991802,127.0221601
2053,162,693223612,벤스쿠키 가로수길점,음식점,37.5196459,127.0222415
2059,162,876312589,뎅오야,음식점,37.51950821,127.0213569
2061,162,1963648367,공감블랙 신사점,음식점,37.51917402,127.0209224
2063,162,291087039,내마음내고향고성,음식점,37.51961268,127.0216273
2065,162,588331418,고성선술집,음식점,37.51961178,127.0216058
2066,162,18133526,무니,음식점,37.51908743,127.0214337
2067,162,1781166707,짚탄갈비 신사점,음식점,37.51919204,127.0209224
2069,162,1444862479,유니쉐프베이커리,음식점,37.52007138,127.0211082
2070,162,530432745,테일러커피 신사점,카페,37.52015786,127.0212077
2072,162,1831054846,헤이티 가로수길점,카페,37.52008201,127.0221364
2073,162,1756297591,라에스키모,카페,37.51983332,127.0222099
2074,162,323415139,레바비세븐틴,카페,37.5203434,127.0216082
2076,162,1595270032,투쿨라운지,카페,37.51970013,127.0213117
2079,162,722080841,텅 신사 스페이스,카페,37.51957565,127.0221035
2080,162,112852450,모모,카페,37.5203434,127.0216082
2081,162,521497009,애트미,카페,37.52008201,127.0221364
2086,163,7955984,세븐일레븐 신사5호점,편의점,37.52112358,127.0220496
2092,163,19808159,오리지널팬케이크하우스 가로수길점,음식점,37.52092273,127.0216638
2094,163,868486733,어썸로즈,음식점,37.52091456,127.0220043
2095,163,626794006,자매의부엌,음식점,37.52092537,127.0220089
2096,163,1266000176,위트앤미트 가로수길점,음식점,37.52118857,127.0214026
2097,163,26505483,리틀인디아,음식점,37.52077755,127.022312
2099,163,1981279127,자매의부엌마켓N,음식점,37.52092537,127.02201
2100,163,1789622327,숙녀케이크,음식점,37.52111638,127.0220044
2102,163,26434350,라바W,음식점,37.52095791,127.0214523
2103,163,13290706,은하식품,음식점,37.52072356,127.0219274
2105,163,19834035,소나 (휴업중),카페,37.52075965,127.0216513
2106,163,328644735,누데이크 신사,카페,37.52106596,127.0218245
2107,163,1363607100,따우전드 신사점,카페,37.52059392,127.0213662
2108,163,1347037413,파치노 에스프레소바,카페,37.52090928,127.0213358
2109,163,1388783110,시몬스 그로서리 스토어 신사,카페,37.52068933,127.021881
2111,163,490404027,파치노에소프레소바 Ver.2,카페,37.520702,127.0215835
2112,163,1299985949,플라워림,카페,37.52080193,127.0220382
2113,163,944134860,싸우전드 커피,카페,37.520702,127.0215835
2117,163,1955023148,틸팅,카페,37.52092177,127.0220043
2118,164,1597999541,GS25 신사포인트점,편의점,37.52207072,127.0210669
2125,164,12684201,르브런쉭,음식점,37.52203558,127.0210725
2126,164,431521088,에뚜왈 가로수길점,음식점,37.52131456,127.0222216
2127,164,10337547,스페인클럽 가로수길점,음식점,37.52190568,127.0219096
2128,164,2137508291,마사타코,음식점,37.52200662,127.0217422
2129,164,1169321500,루307,음식점,37.52193097,127.0215521
2131,164,417725794,모던아시안누들서비스,음식점,37.52188239,127.0211766
2132,164,21214588,레드클라우드,음식점,37.5221977,127.0214029
2133,164,883007320,을지다락 가로수길,음식점,37.5216975,127.0221618
2134,164,936257574,피자익스프레스,음식점,37.52176152,127.0219277
2135,164,1966080134,에드엣,음식점,37.52205352,127.0215047
2136,164,25777704,램브라튼,음식점,37.52211115,127.0216834
2137,164,42362194,센티넬,음식점,37.52182825,127.0216177
2138,164,2139244661,나이스샤워치유,음식점,37.52173363,127.0217082
2139,164,27291233,컬렉션라운지,음식점,37.52146233,127.02219
2140,164,905854262,에스토,음식점,37.52205352,127.0215047
2143,164,547957820,이자카야 논논,음식점,37.52183095,127.0216268
2144,164,1263730292,록키,음식점,37.52192467,127.0215567
2147,164,27243263,로칼버블 펍,음식점,37.52206793,127.0215024
2148,164,20707502,오기하라의작은부엌,음식점,37.52192023,127.0211675
2150,164,1333672724,제일샴페인,음식점,37.52200662,127.0217422
2152,164,528771245,코리아나,음식점,37.52182283,127.0216562
2154,164,8549569,촌구석,음식점,37.52190569,127.0218734
2155,164,1020372443,겜블러라운지,음식점,37.52169029,127.0221539
2157,164,526962350,도쿄수플레 가로수길점,카페,37.52131456,127.0222171
2160,164,630677753,컬렉션서울,카페,37.52145152,127.0222126
2161,164,842254000,메종드그릭 신사점,카페,37.52136869,127.0218778
2164,164,585124366,쿠키시스터즈 신사점,카페,37.52200662,127.0217422
2166,164,1992022334,꼬네,카페,37.5221977,127.0213916
2167,164,103953019,뉴블카페,카페,37.5213795,127.0218597
2168,164,1603121911,발리와,카페,37.52199941,127.0217422
2172,165,16932280,CU 신사한남점,편의점,37.52290685,127.0210343
2187,165,1768655445,리커테이션,음식점,37.52262105,127.0220365
2191,165,19716587,양식당더램키친 신사점,음식점,37.52299419,127.021376
2192,165,107739384,꿍탈레,음식점,37.52275265,127.0217741
2200,165,17182717,마마논마마,음식점,37.52256623,127.0212537
2201,165,1208053256,골드참치,음식점,37.52282829,127.0219913
2204,165,797109137,성하루,음식점,37.52248601,127.0214392
2207,165,350534505,우유니,음식점,37.52301221,127.021385
2210,165,140824272,신사설렁탕,음식점,37.52292758,127.0210162
2212,165,1771213794,피센시오,음식점,37.52246801,127.0213147
2214,165,1991156404,야키토리 요이사,음식점,37.52268428,127.0211655
2219,165,215116622,라뻬를라,음식점,37.52227426,127.0215511
2220,165,979531592,몽리라운지,음식점,37.52302302,127.0213534
2222,165,1065468427,달식당,음식점,37.52268068,127.0211632
2223,165,1517490483,토담골,음식점,37.52292747,127.0216407
2224,165,13305920,뚜띠마띠,음식점,37.52243179,127.0223034
2225,165,396056603,보우앤파트너스 카소미야 가로수길본점,음식점,37.52246801,127.0213147
2226,165,21413667,우리식당,음식점,37.52266806,127.02117
2230,165,42092215,이안,음식점,37.52257254,127.0212582
2232,165,1000900386,이스케이프샾,카페,37.52292747,127.0216407
2233,165,960187073,카페바잇미 신사점,카페,37.52257254,127.0212582
2238,165,926830366,브룩스라운지,카페,37.52235263,127.0216428
2240,165,2129750685,플럭스커뮤니티,카페,37.52257254,127.0212582
2244,165,518171318,느낌,카페,37.522422,127.0216745
2267,166,485285611,픽쳐하우스,문화시설,37.52300668,127.0220197
2274,166,864422800,도미노피자 신사점,음식점,37.52328613,127.0212675
2283,166,11386434,싱코판,음식점,37.52300849,127.0220185
2285,166,21748238,스타벅스 가로수길점,카페,37.52315992,127.0216611
2288,166,1384029439,TWUC,카페,37.52342304,127.021539
2289,166,16378381,(주)아트앤컬쳐팩토리,카페,37.52314544,127.0220186
2295,184,1141207801,CU 논현광명점,편의점,37.50754065,127.0236189
2305,184,1713865354,리엠아트센터,문화시설,37.50796592,127.02361
2315,184,377488831,아웃백스테이크하우스 강남점,음식점,37.50710995,127.0237058
2316,184,26777815,해랑,음식점,37.50737391,127.023871
2317,184,1348944575,옥상포차,음식점,37.50788939,127.0233328
2318,184,351297920,상해루,음식점,37.50788939,127.0233328
2319,184,1373425126,심야식당모모,음식점,37.50764604,127.0237354
2320,184,16620520,돼지고추장불고기,음식점,37.50747933,127.0238338
2321,184,1821750034,빽돈 신논현점,음식점,37.5077812,127.0236834
2322,184,277107888,꺼꾸잽이 초장집 논현점,음식점,37.50787131,127.0236393
2323,184,1823057548,동남집 논현영동시장점,음식점,37.50768028,127.023732
2324,184,13333278,이모왕곱창,음식점,37.50748203,127.0238598
2325,184,24484094,히까리,음식점,37.50745687,127.0235137
2326,184,648989809,한신즉석우동 논현점,음식점,37.50749284,127.0238643
2327,184,2007246636,메르밀진미집 논현직영점,음식점,37.5075452,127.0233927
2328,184,1140764079,리나스 신논현점,음식점,37.5068263,127.0228281
2329,184,1876947426,유림상회,음식점,37.5072793,127.0238959
2330,184,1902679752,걍우동 반포본점,음식점,37.50754722,127.022247
2331,184,824121770,육전국밥 논현역점,음식점,37.50713248,127.0236764
2332,184,2055856667,낯선천장,음식점,37.50761451,127.023723
2333,184,23714213,유로포차,음식점,37.5072766,127.0238868
2334,184,840669512,철길부산집 논현점,음식점,37.50800648,127.0235591
2335,184,1040959632,오늘맥주한잔,음식점,37.50796142,127.0236043
2336,184,1047545360,다트플렉스 강남점,음식점,37.5079434,127.0236156
2337,184,1289084754,화다인,음식점,37.50793619,127.0235964
2338,184,16036999,야야참나무장작구이 논현점,음식점,37.50750726,127.0238733
2339,184,733539809,후라이드참잘하는집 반포점,음식점,37.50752739,127.0222571
2340,184,649324527,고피자 강남점,음식점,37.50793439,127.023593
2341,184,1702830166,다비드,음식점,37.50793619,127.0235964
2342,184,1646204566,도래곱창 신논현역점,음식점,37.50755441,127.0223126
2343,184,978032441,다비드바,음식점,37.5079479,127.0236247
2344,184,1769204169,러너펍 논현점,음식점,37.50793619,127.0235964
2345,184,1859266073,호니도니 논현점,음식점,37.50796502,127.0236111
2346,184,24406856,간단포차,음식점,37.50748203,127.0238451
2347,184,573377006,G몬스터 논현점,음식점,37.50762617,127.0239933
2348,184,902054930,농장가든,음식점,37.50793619,127.0235964
2349,184,179879059,포크포크 논현점,음식점,37.50793259,127.023593
2350,184,414292128,히카리,음식점,37.50748301,127.0234978
2351,184,17790074,닭발껍데기,음식점,37.50790014,127.0236654
2352,184,1112515093,감계무량 논현점,음식점,37.50793619,127.0235975
2353,184,567213706,대중갓포 논현점,음식점,37.50766496,127.023732
2354,184,477653594,잇티 논현점,음식점,37.50793619,127.0235975
2355,184,8105443,커피빈 영동점,카페,37.5069308,127.0229367
2356,184,2014774297,스타벅스 강남논현점,카페,37.5078966,127.0233396
2357,184,1154946099,빽다방 논현영동시장점,카페,37.50743075,127.0234899
2358,184,879658256,메이드인카페,카페,37.50724055,127.0239355
2359,184,73695364,999존,카페,37.5079434,127.0236156
2360,184,589014902,커피에반하다 강남논현점,카페,37.50762824,127.0226067
2361,184,1131351818,카페파마시아,카페,37.50737782,127.0222808
2362,184,900864437,테라,카페,37.50751091,127.0236155
2363,184,2099544729,빽다방 대전지족점,카페,37.5072766,127.023888
2387,184,1035729001,열린온누리약국,약국,37.50736605,127.0225953
2388,184,1211216585,파마시아약국,약국,37.50737872,127.0222797
2389,184,2002387440,더하늘약국,약국,37.50760573,127.0225241
2403,185,10119238,영동원삼겹살,음식점,37.50875437,127.0232675
2404,185,1954928204,우제홍참치,음식점,37.50832186,127.0234121
2408,185,958159132,우기식당 바다점,음식점,37.50873007,127.0231012
2409,185,961301924,용용선생 논현점,음식점,37.50814975,127.0234992
2411,185,23700231,교촌치킨 논현1호점,음식점,37.50809202,127.0238362
2412,185,1743484319,대패마켙 강남논현점,음식점,37.50851822,127.0237029
2413,185,1903805541,오늘도한우,음식점,37.50851822,127.0237018
2414,185,1062504834,노가리슈퍼 신논현점,음식점,37.50863729,127.0229825
2416,185,1620928944,영동포차,음식점,37.50839388,127.0237062
2417,185,328996974,가마치통닭 서울논현역점,음식점,37.50802922,127.0224337
2419,185,1372935574,강남맛집 안자고한우곱창 신논현점,음식점,37.50839388,127.0236938
2422,185,1631339851,우목뭉티기,음식점,37.50877059,127.0232404
2424,185,952564084,우기식당 육지2호점,음식점,37.50867783,127.0230515
2427,185,928511632,오봉집 신논현점,음식점,37.50832276,127.0234178
2428,185,328954642,로바,음식점,37.50879319,127.0228864
2431,185,1101549561,고봉당 논현역점,음식점,37.50832276,127.0234178
2432,185,16376730,강남떡방,음식점,37.50871116,127.0230458
2434,185,1847390239,팔공일801,음식점,37.50878141,127.0232178
2435,185,16082292,맥주뚜껑,음식점,37.50875076,127.0232947
2440,185,1260685359,푸드헤븐,음식점,37.50851822,127.0237018
2443,185,285302850,할리스 강남대로논현점,카페,37.50854541,127.0228976
2446,185,20460573,동경라이브,카페,37.5080806,127.0223353
2474,185,1730600057,센느약국,약국,37.50827866,127.0231633
2475,185,8776302,광성약국,약국,37.5086283,127.0228784
2477,186,1063485116,GS25 논현대지본점,편의점,37.50889493,127.0232223
2486,186,16037922,영동삼미숯불갈비,음식점,37.50947163,127.0229329
2487,186,463465189,회식의달인 신논현점,음식점,37.50903184,127.0234486
2489,186,8153040,함지곱창전문,음식점,37.50928055,127.0232858
2490,186,19901835,영동소금구이 논현본점,음식점,37.50884803,127.0235028
2491,186,1727176654,화로상회 강남논현점,음식점,37.50942831,127.0232994
2492,186,25809731,광명수산 영동점,음식점,37.5089778,127.0233762
2493,186,24693049,아나고야,음식점,37.50930587,127.0228198
2494,186,27401685,마산아구찜해물탕,음식점,37.50913282,127.0231183
2495,186,1609751040,장미술상,음식점,37.50925897,127.023055
2496,186,1527942162,보승회관 논현역점,음식점,37.50861044,127.0220776
2497,186,1589034356,신호등장작구이 논현점,음식점,37.50942922,127.0232983
2499,186,916340208,달맞이 본점,음식점,37.50956265,127.0228549
2500,186,1627001384,맹그르브삼겹살,음식점,37.50876513,127.0235163
2501,186,1266571235,뚜레쥬르 카페강남대로점,음식점,37.50903649,127.0226953
2502,186,995880537,우연이네,음식점,37.50938242,127.0229917
2503,186,114427899,마르케베이커리,음식점,37.50886613,127.0230866
2504,186,9228524,안동뭉티기와 투뿔구이,음식점,37.50926528,127.0230471
2505,186,418825708,이층집닭도리탕,음식점,37.50885344,127.0234802
2507,186,1074225216,뼈찜관,음식점,37.50907517,127.0230471
2508,186,10879498,풍천장어 논현역점,음식점,37.50899586,127.0231771
2509,186,912621785,현대순대국 2호점,음식점,37.50968519,127.0228471
2510,186,2142667895,다님길,음식점,37.50909668,127.023616
2512,186,1034412169,대동집 서울논현점,음식점,37.50887143,127.0236159
2513,186,972746465,미니양꼬치 논현점,음식점,37.50932738,127.0234079
2514,186,201739660,포케올데이 신논현점,음식점,37.50850501,127.0221217
2515,186,1512281324,행복밥상,음식점,37.50956085,127.0228572
2516,186,1729933331,미스타교자 논현점,음식점,37.50896883,127.0231579
2518,186,69080801,모모야끼,음식점,37.50957161,127.0231038
2519,186,1404836402,비어라이제 강남점,음식점,37.50930587,127.0228243
2520,186,327040390,임바이브,음식점,37.5093311,127.0228243
2522,186,1999789317,153구포국수 논현점,음식점,37.50894833,127.0219986
2523,186,765927863,술이그린밤,음식점,37.50911843,127.0229871
2524,186,1195204007,인생2막창 논현점,음식점,37.50880212,127.0232868
2525,186,700797038,꾸브라꼬숯불치킨 서울강남점,음식점,37.50876513,127.0235073
2526,186,1396631776,미치코서울 재즈라운지,음식점,37.50874081,127.0234858
2527,186,849095280,이더웨이,음식점,37.50907877,127.0230912
2528,186,3418876,유메오뎅 논현2호점,음식점,37.50903184,127.0234508
2529,186,207446927,거여동왕언니포차,음식점,37.50921574,127.0229645
2530,186,1957211616,맥아박스,음식점,37.50957251,127.0231049
2533,186,1974188679,메가MGC커피 논현중앙점,카페,37.50869333,127.0220867
2534,186,601004893,감성커피 신논현점,카페,37.50901395,127.0227835
2535,186,329625307,카페조커게임랜드,카페,37.50869873,127.0221071
2536,186,820163308,재즈인블랙,카페,37.50942112,127.0232089
2537,186,13310811,세가프레도 논현점,카페,37.50894564,127.0219103
2538,186,353471821,리스트레토커피,카페,37.50889862,127.0228197
2562,186,977826370,다정약국,약국,37.50909701,127.0219285
2564,186,716692361,영동약국,약국,37.50914192,127.0226535
2565,186,497352370,올리브약국,약국,37.50850501,127.0221217
2566,187,12296534,GS25 논현영동점,편의점,37.50996899,127.0229421
2575,187,13624172,손국시,음식점,37.5099978,127.023062
2576,187,1919627098,논현조개전골,음식점,37.51010949,127.0232317
2580,187,1420145841,삼양만나,음식점,37.51052945,127.0227342
2582,187,11047223,강남설렁탕,음식점,37.51042672,127.0228111
2583,187,16417279,고흥집,음식점,37.50974904,127.0234624
2585,187,2000969854,언양불고기,음식점,37.51034022,127.0228246
2587,187,1091620001,논현전,음식점,37.50971673,127.0228018
2591,187,1771055449,돼지가엔푸드,음식점,37.51014649,127.0229185
2594,187,1042378504,옥된장 논현점,음식점,37.50998431,127.0228901
2595,187,1773363996,종로계림닭도리탕원조 논현점,음식점,37.51009147,127.0232408
2596,187,642462680,마켓정 논현본점,음식점,37.50969961,127.0227973
2601,187,836438019,계작살,음식점,37.50972124,127.0227905
2604,187,20024169,우리단골집,음식점,37.50977787,127.0234533
2605,187,1947501210,논현중화99포차,음식점,37.50974647,127.0227679
2606,187,309430798,쿠벤 논현점,음식점,37.50972034,127.0227928
2607,187,26209566,대나무집,음식점,37.5103258,127.0228472
2609,187,498374153,마루벌돌구이,음식점,37.50941031,127.0232372
2610,187,1473443342,육전면사무소 논현역점,음식점,37.51009147,127.0232408
2611,187,1410827114,김씨화덕,음식점,37.51011315,127.0229331
2612,187,1592723534,쇼미비치,음식점,37.50942922,127.0232983
2613,187,1404707726,현정키친,음식점,37.51043033,127.0228111
2616,187,1243949971,카페게이트 논현역점,카페,37.50992114,127.023416
2617,187,1163826927,바나프레소 논현영동시장점,카페,37.51026356,127.0232318
2619,187,1645799545,와드커피 논현역점,카페,37.51009147,127.0232397
2621,187,72606696,오마이주스,카페,37.51014649,127.0229185
2638,187,1720656437,연세팜약국,약국,37.50990764,127.0233312
2640,188,19205791,CU 논현동화점,편의점,37.51075099,127.0232908
2659,188,170461079,김태준의탕탕집 논현본점,음식점,37.51064382,127.0230306
2660,188,16055100,용삼계탕,음식점,37.51091325,127.0228655
2664,188,1458825315,더형제 강남점,음식점,37.51132229,127.0229641
2665,188,1859802579,심연한우,음식점,37.51073655,127.0234129
2667,188,115961631,이강인 참치도매상,음식점,37.51075827,127.0229243
2668,188,7833054,도미노피자 논현점,음식점,37.51071133,127.0233812
2671,188,1390671305,신사정육식당,음식점,37.51122416,127.0225489
2673,188,157382006,저스트카츠,음식점,37.51073663,127.0230114
2674,188,1246921124,마님김밥 논현본점,음식점,37.51076547,127.0229537
2677,188,289149283,문라이트,음식점,37.51075737,127.0229243
2684,188,1014051301,메가MGC커피 논현가구거리점,카페,37.51089882,127.0229492
2700,188,16038719,왕성약국,약국,37.51131783,127.0227401
2718,189,1942795823,레자미오네뜨,음식점,37.51209176,127.0229066
2722,189,1899866602,마니달오 논현점,카페,37.51197562,127.0224349
2723,189,1174530618,페이스트리테이블,카페,37.51205482,127.0229122
2748,191,19790573,그레잇237,음식점,37.51373336,127.0230508
2750,192,18758738,와이티인피니트,음식점,37.51416761,127.0232285
2751,193,8562286,GS25 학동공원점,편의점,37.51526248,127.0224302
2759,193,21419105,김록훈베이커리,음식점,37.51536065,127.0226407
2760,193,1068310719,우천식육식당 신사점,음식점,37.51587787,127.0224089
2766,193,549321036,인생면가,음식점,37.51587787,127.0224089
2768,193,1317500992,직구삼 신사점,음식점,37.51504345,127.022903
2770,193,74838452,호록집,음식점,37.51584544,127.0224191
2772,193,21686318,비어이따 강남점,음식점,37.51587968,127.0224055
2775,193,1168246782,차분,카페,37.51549037,127.0227764
2777,193,1980192714,카페타일,카페,37.51587247,127.0223965
2778,193,30745405,TCHA BOON,카페,37.51547325,127.0227866
2780,194,797625249,GS25 논현스카이점,편의점,37.5159878,127.0223965
2793,194,152761773,달수네소곱창,음식점,37.51646075,127.0228039
2794,194,7873584,신사뻘낙지,음식점,37.51649239,127.0222609
2795,194,587749908,이태리부대찌개 신사점,음식점,37.51649227,127.0228627
2798,194,26317033,신사김밥수제비,음식점,37.51639507,127.0223062
2799,194,8774082,교동한과,음식점,37.51657869,127.0232428
2801,194,1077376907,정원문어보쌈,음식점,37.51645984,127.0228491
2802,194,13494710,엘오소 신사역점,음식점,37.51662207,127.0225596
2811,194,274268537,인타운커피,카페,37.51651216,127.0225324
2827,195,1178003813,왕스덕 논현점,음식점,37.51713646,127.0230201
2835,195,978587274,초장집 신사가로수길점,음식점,37.51762494,127.0223269
2836,195,2038019552,리나스파파,음식점,37.51709763,127.0234488
2841,195,300986896,울릉집 신사직영점,음식점,37.51762494,127.0223269
2843,195,277127097,김수사김참치,음식점,37.51718778,127.0232181
2844,195,2109644097,룬다이닝펍,음식점,37.51709042,127.0234669
2845,195,17127100,스타벅스 도산가로수길점,카페,37.51735443,127.0233754
2846,195,10827089,커피빈 신사점,카페,37.51698611,127.0223968
2847,195,96856297,카페엔바이콘 논현점,카페,37.5169337,127.0231977
2848,195,1246760997,텐퍼센트커피 신사역점,카페,37.51705996,127.0225835
2852,195,1185669065,키쉬미뇽 신사역점,카페,37.51714828,127.0224647
2853,195,19106986,제이커피,카페,37.51738237,127.023329
2882,196,12296346,GS25 신사제일점,편의점,37.51796638,127.0225012
2893,196,18948155,은행골 신사점,음식점,37.51800237,127.0227591
2895,196,18770926,갓덴스시 신사점,음식점,37.5179844,127.0225374
2897,196,620553532,신사화로 신사본점,음식점,37.51805641,127.0228768
2899,196,478360598,신사전,음식점,37.51866554,127.0226179
2900,196,13956212,기세끼 신사점,음식점,37.51797353,127.0227953
2908,196,313953139,폼드팡베이커리,음식점,37.51820156,127.0224062
2909,196,994241029,레부르주아,음식점,37.51816992,127.0229741
2911,196,941948862,보승회관 신사점,음식점,37.51803031,127.0227252
2912,196,12275934,치킨뱅이 신사점,음식점,37.51785122,127.0225696
2913,196,2142871908,도시맥주 가로수길점,음식점,37.51829879,127.0228191
2917,196,86100324,일곱잔,음식점,37.51784749,127.0222749
2918,196,550295514,루카,음식점,37.51816811,127.0229854
2919,196,313270264,팻보이 샌드위치,음식점,37.51799877,127.0227591
2920,196,243797030,막걸리너리,음식점,37.51803675,127.0220261
2921,196,397450244,우리집 신사점,음식점,37.51794761,127.021698
2922,196,823779116,신사동 연어오빠네,음식점,37.51782947,127.0222885
2923,196,15469455,샤브리스바,음식점,37.5179665,127.0218632
2924,196,717813970,샤블리스바,음식점,37.51798089,127.0220351
2925,196,1793379373,나누다키친카레 신사1호점,음식점,37.51809618,127.0222162
2926,196,1595775282,하늘빠,음식점,37.5179853,127.0225363
2927,196,24009378,몰타세계맥주,음식점,37.51800237,127.0227591
2928,196,89150246,할리스 세로수길점,카페,37.51822944,127.0226822
2929,196,1285061069,제이엠커피 신사라운지,카페,37.51841511,127.0223791
2931,196,1502372963,유키모찌 신사점,카페,37.51820156,127.0224062
2932,196,224175150,더도우,카페,37.5184133,127.0223746
2933,196,343459740,블랜디크,카페,37.51841511,127.0223791
2939,196,672027940,세로수길약국,약국,37.51817532,127.0229809
2940,196,450890585,신사라라약국,약국,37.51783298,127.0227771
2951,197,1636873268,아카이브피,문화시설,37.51932425,127.0222256
2952,197,1123447235,8860 프로젝트,문화시설,37.51934317,127.0222256
2961,197,24167310,송옥 강남본점 가로수길,음식점,37.51866558,127.0223973
2963,197,1322246880,리파인 가로수길점,음식점,37.51914403,127.0223104
2966,197,1218443086,롤링파스타 가로수길점,음식점,37.51901859,127.0233567
2969,197,103828570,도산회동 신사본점,음식점,37.51901693,127.022601
2977,197,1604786089,스구식탁 가로수길점,음식점,37.51933499,127.0225955
2980,197,1962662694,강남주막다방,음식점,37.5190294,127.0233759
2981,197,1336193965,쿠라우니,음식점,37.51902604,127.0220807
2982,197,478787418,파니엔테,음식점,37.51881338,127.0222119
2983,197,24009564,아이리쉬 레드,음식점,37.51889275,127.0217639
2984,197,255272920,더 믹스 랩,음식점,37.51919165,127.0230038
2985,197,669911143,신사몰몰,음식점,37.51920345,127.02254
2986,197,840170778,빵빠르 신사점,음식점,37.51889084,127.0223295
2987,197,745003625,텐웰즈,음식점,37.51900342,127.0226123
2988,197,101352821,미니보물섬,음식점,37.51861427,127.022127
2989,197,408900708,신사돈,음식점,37.51884042,127.0221723
2990,197,1861867207,에프앤비 가로수점,음식점,37.51901873,127.0226056
2991,197,546755191,문온더힙,음식점,37.51920255,127.0225423
2992,197,1245806134,다케야,음식점,37.51901498,127.0233612
2993,197,685821434,일라이파트너스,음식점,37.51920345,127.02254
2994,197,12983903,듀자미,카페,37.5193431,127.0226011
2995,197,1012984730,르사이트,카페,37.51886377,127.0225897
2996,197,522639283,코드이스케이프 가로수길점,카페,37.51882216,127.0233838
2997,197,576726241,프론트서울,카페,37.51933325,127.0222505
2998,197,1618192544,메가MGC커피 가로수길점,카페,37.51921779,127.0229608
3000,197,2050743840,르카페,카페,37.51902591,127.022773
3008,197,1998675319,하파데이,카페,37.51918085,127.0229631
3009,197,26965179,또마,카페,37.51898267,127.0227549
3015,198,27498658,GS25 신사성원점,편의점,37.51971343,127.0224881
3026,198,1508230148,동녘,음식점,37.51960439,127.0225752
3027,198,290249009,감성타코 가로수길점,음식점,37.51962048,127.0232709
3034,198,940982359,안주집,음식점,37.51976478,127.0225153
3035,198,1912580824,몽글몽글 가로수길점,음식점,37.52046034,127.0225879
3037,198,478783194,어슬렁바,음식점,37.51964751,127.0232686
3038,198,490742433,모퉁이돌판한우 신사점,음식점,37.51960439,127.0225752
3039,198,1823238444,버터플라이스테이크하우스,음식점,37.52013957,127.0226512
3042,198,976921902,더사만다스,음식점,37.51960439,127.0225752
3043,198,202737056,엘비노프로푼도,음식점,37.52043511,127.022615
3045,198,40126070,로스아르볼레스,음식점,37.52045313,127.0226162
3048,198,1104225959,카페키츠네 서울,카페,37.51963859,127.0227641
3051,198,942554622,랄프스커피 가로수길,카페,37.51999898,127.0228672
3054,198,262989998,올데이사운드바,카페,37.51972874,127.0225334
3055,198,17748080,아르켓카페 가로수길점,카페,37.51986916,127.0232133
3057,198,1465678817,코지아일랜드,카페,37.52028734,127.0226354
3059,198,1949770645,아마레스커피,카페,37.52046394,127.0226151
3061,198,905757495,비바크,카페,37.52013597,127.0226647
3069,199,729414263,루다갤러리,문화시설,37.52065859,127.0224703
3077,199,19160580,고디바 가로수길플래그쉽,음식점,37.52101528,127.023027
3079,199,443586783,후라토 식당 신사점,음식점,37.52078746,127.0223244
3080,199,1237681120,딸부자네불백 가로수길점,음식점,37.52114157,127.0222442
3081,199,1573241541,우동당 가로수길점,음식점,37.52089364,127.023036
3083,199,687420536,옥게장,음식점,37.5208837,127.0232
3084,199,1441353101,디제고,음식점,37.52068199,127.0226129
3086,199,1582399970,아비꼬 신사가로수길점,음식점,37.52111184,127.0222148
3087,199,938808833,글라스티어즈,음식점,37.52132985,127.0223608
3089,199,118375545,바이포잉,음식점,37.52024036,127.0232801
3091,199,237155255,에어드랍스낵,음식점,37.52034489,127.0232462
3096,199,18643113,이코복스 커피스튜디오 신사점,카페,37.52115959,127.0222227
3099,199,182581980,카페 카이브,카페,37.52115956,127.0223822
3102,199,13128274,빈스빈스 가로수길점(휴업중),카페,37.52066934,127.0227825
3104,199,24009566,리치카페,카페,37.52104408,127.0231854
3105,199,2068154019,토코코피투쿠 서울,카페,37.52063696,127.0224692
3108,199,697427408,에소프레소플레이스,카페,37.52059012,127.0224205
3111,199,18618125,코노이스페이스,카페,37.52125314,127.0230361
3131,200,722740294,위알 필라델피아,음식점,37.52188759,127.0222705
3134,200,2112284818,헤이즈 밀 베이커리,음식점,37.52200363,127.0232456
3135,200,1996525692,첼시스 하이볼 가로수점,음식점,37.52126031,127.0232013
3136,200,203277944,어덜트온리,음식점,37.52138646,127.0231651
3137,200,1804213353,버드맨 서울,음식점,37.52170555,127.0224537
3140,200,749409190,노퍼블릭,음식점,37.52138646,127.0231674
3141,200,1564628670,영국포차,음식점,37.52139006,127.0231764
3143,200,943549050,히든라운지,음식점,37.52138646,127.0231674
3144,200,112065839,Green Stitch,음식점,37.52138646,127.0231651
3149,200,882114256,스타벅스 신사가로수점,카페,37.52188664,127.0225567
3157,201,265237576,GS25 가로수길점,편의점,37.52269655,127.0230094
3164,201,551907075,아트강,문화시설,37.52269655,127.0230094
3165,201,1610498185,파프리카 쇼룸,문화시설,37.52301744,127.0222968
3172,201,1674564919,달링키친,음식점,37.52212166,127.0232513
3176,201,20032439,페타테,음식점,37.52227663,127.0232898
3177,201,25754524,지구당 신사점,음식점,37.52225951,127.0232943
3178,201,1841171496,EXXIT,음식점,37.52307502,127.0227776
3179,201,11831440,믹스라운지,음식점,37.52264448,127.0220365
3181,201,13109804,제지마스,음식점,37.52260123,127.0220456
3183,201,794691108,트러블스 Trou8les 신선한 과일 음료와 건강한 볼,카페,37.52307502,127.0227776
3185,201,590672981,와이드비전에이전시,카페,37.52307502,127.0227776
3190,201,876771275,밍약국,약국,37.5230543,127.0227663
3191,202,1846406696,CU 신사에비뉴점,편의점,37.52385885,127.0229781
3200,202,7967833,신사동주민센터,공공기관,37.52398503,127.0227745
3201,202,8148270,할머니현대 낙지아구감자탕,음식점,37.52358847,127.0233807
3202,202,1571769694,마이페이보릿쿠키테리아,음식점,37.52335783,127.0233071
3204,202,1604705350,마히나 비건 테이블 Mahina Vegan Table,음식점,37.52365701,127.0230436
3205,202,1106341953,신사술녀,음식점,37.5236363,127.023004
3206,202,17977525,살림,음식점,37.52351285,127.023073
3208,202,20438762,아프로펍 가로수길점,음식점,37.52352006,127.0230594
3210,202,21331035,옐로우자켓,음식점,37.5236354,127.0230052
3211,202,23609896,미노스,카페,37.52317415,127.0226837
3223,202,1729019691,가로수길천사약국,약국,37.52385885,127.0229803
3230,203,12250697,한잔의추억,음식점,37.52400834,127.0233492
3231,203,1479841417,어바웃,음식점,37.52423361,127.0232633
3232,203,27079539,REVIEW,음식점,37.52434174,127.0232362
3233,203,612976226,카페멜로우,카페,37.52426966,127.0232316
3234,203,20950504,삼성화랑갤러리카페,카페,37.52423362,127.0232361
3238,203,21911548,압구정길약국,약국,37.52412828,127.0228062
3240,204,7933944,현대고등학교,학교,37.52546995,127.0223948
3242,221,874801248,GS25 S9신논현역점,편의점,37.50462741,127.0250283
3248,221,1328715602,리조이스 스튜디오,문화시설,37.50529965,127.0245806
3249,221,77153801,더바른정육식당 강남신논현본점,음식점,37.50542761,127.0245151
3250,221,7887812,버거킹 신논현역점,음식점,37.50490671,127.0250713
3251,221,16270590,세꼬시닷컴,음식점,37.50534465,127.0248317
3252,221,1680354356,프로티너 신논현역점,음식점,37.50508179,127.0237007
3253,221,1304753220,노브랜드버거 신논현역점,음식점,37.50447452,127.0236428
3254,221,417715462,삼송빵집 신논현점,음식점,37.50463461,127.0250305
3255,221,1237111521,M3라운지펍,음식점,37.50527893,127.0245422
3256,221,76148841,프레시크레딧 에이블짐 신논현역점,음식점,37.50457094,127.0235908
3257,221,1523639799,누들톡 신논현역점,음식점,37.50463452,127.0250305
3258,221,1996061903,마리짱 신논현역점,음식점,37.5046211,127.0250079
3259,221,14632740,스넥바,음식점,37.50473403,127.0235626
3260,221,23105171,고궁,음식점,37.50530145,127.0245784
3261,221,231243793,메가MGC커피 신논현역점,카페,37.5052429,127.0244913
3262,221,1369633006,8B돌체 신논현역점,카페,37.50463461,127.0250305
3263,221,1301946051,카페후,카페,37.50450516,127.0236236
3303,221,22542048,제일그랜드약국 공공심야약국,약국,37.50506268,127.0245998
3304,221,95304402,친절한약국,약국,37.50497159,127.0250239
3305,221,613289461,신논현역365약국,약국,37.50463461,127.0250317
3306,221,1651140268,신논현비비약국,약국,37.50486893,127.0247886
3307,222,27498668,GS25 논현드림점,편의점,37.50536626,127.024877
3323,222,9058351,사랑방,음식점,37.50544105,127.0248431
3326,222,1704743969,비비펍 육회왕자연어공주 신논현점,음식점,37.50585011,127.024859
3328,222,15819191,레드모델바,음식점,37.50538338,127.0248679
3329,222,564145530,노상치킨,음식점,37.50585731,127.0248704
3331,222,24529846,스타벅스 신논현역점,카페,37.50542417,127.0236827
3373,222,1459734288,레몬약국,약국,37.50532507,127.0236487
3374,222,1240610221,에이치약국,약국,37.50532687,127.023651
3375,223,11289660,CU 논현혜성점,편의점,37.50617725,127.0244882
3390,223,2016997121,밤을걷는선비,음식점,37.50663495,127.0245449
3391,223,2015065724,세광양대창 논현점,음식점,37.50625199,127.0247099
3392,223,500672563,태양곱창 신논현점,음식점,37.50651064,127.0243899
3393,223,1550251343,동명닭집 논현직영점,음식점,37.50610061,127.0247505
3394,223,13573425,기세끼 논현점,음식점,37.50616283,127.0244837
3395,223,550177564,비노비스,음식점,37.50680794,127.0245291
3396,223,788788934,오늘와인한잔 논현점,음식점,37.50688911,127.0241808
3397,223,366672662,마케집 논현점,음식점,37.50631234,127.0247574
3398,223,1171843207,60계치킨 서울논현점,음식점,37.50640785,127.0247687
3399,223,16053997,로시망고 논현점,음식점,37.50640252,127.0243876
3400,223,842484368,김봉남포차 논현본점,음식점,37.50681696,127.0244974
3401,223,87475920,등촌샤브칼국수 논현점,음식점,37.5064538,127.0247733
3402,223,26546470,브롱스 논현점,음식점,37.50649804,127.0242983
3403,223,8850930,파리바게뜨 신논현교보타워점,음식점,37.50631687,127.0246432
3404,223,618107514,해화옥 신논현 직영점,음식점,37.50661879,127.0242553
3405,223,1469383566,똔똔 이자카야,음식점,37.50682957,127.0245155
3406,223,1112233119,누리초밥참치 본점,음식점,37.5060961,127.024746
3407,223,137240050,KMGM 논현점,음식점,37.50686209,127.0241129
3408,223,1893553735,모미지 강남논현점,음식점,37.50687559,127.0241582
3409,223,1524654952,키친콤마 강남,음식점,37.5063577,127.0232249
3410,223,1135989699,똔똔,음식점,37.50682596,127.0245336
3411,223,1949564044,파이널나인 신논현점,음식점,37.50642947,127.0247801
3412,223,566762926,M바,음식점,37.50642858,127.0247269
3413,223,21525332,골목길,음식점,37.50638271,127.0243435
3414,223,1183765445,바비비드,음식점,37.50669545,127.0238674
3415,223,27549461,무궁화생고기 논현점,음식점,37.5062637,127.0246873
3416,223,19660902,더제이원,음식점,37.50631775,127.0247416
3417,223,175208497,엔커피스튜디오,카페,37.50620616,127.0241127
3418,223,515212510,카페 제이원플러스,카페,37.50603964,127.0232746
3434,223,1389339830,블루밍약국,약국,37.50618093,127.024107
3436,224,74531726,이마트24 R논현스타점,편의점,37.50746666,127.024147
3446,224,1212558291,이자카야나무 논현점,음식점,37.50733331,127.0241425
3448,224,1660939960,60년전통신촌황소곱창 논현직영점,음식점,37.50711259,127.0239942
3449,224,26809477,코스모왕양꼬치 논현본점,음식점,37.50695574,127.0243889
3450,224,1218219229,영동그집,음식점,37.50749273,127.0244185
3452,224,455381482,순자포차 논현본점,음식점,37.50725667,127.0243834
3453,224,22052567,강남곱창이야기 서울본점,음식점,37.50701527,127.0240451
3454,224,1901250055,이대팔쭈꾸미 논현본점,음식점,37.50695574,127.0243799
3455,224,125705125,로쿄 신논현,음식점,37.50725845,127.0245225
3458,224,515930750,원할머니 논현직영점,음식점,37.50715037,127.024294
3460,224,8846917,논골집 영동점,음식점,37.50776308,127.0241901
3462,224,1878628127,별하곱창 논현본점,음식점,37.50760544,127.0240283
3468,224,266242590,광수육회 논현점,음식점,37.50726298,127.0243675
3469,224,1791732866,오또상,음식점,37.50702068,127.0240496
3474,224,472935212,양꽃 양갈비 강남점,음식점,37.50763696,127.0240815
3475,224,394338570,유메오뎅 논현점,음식점,37.50764237,127.0240758
3479,224,907244401,삼덕통닭 신논현점,음식점,37.50712431,127.0239807
3480,224,263397773,오빠화이팅 강남논현점,음식점,37.50725845,127.0245202
3481,224,1739065406,엔틱정 강남논현점,음식점,37.50713242,127.0239863
3482,224,1891564944,픽미픽미아이스 강남논현점,음식점,37.50746756,127.0241493
3483,224,1130741912,술속의밤 신논현점,음식점,37.50748287,127.0241832
3484,224,1264190042,꽃주막,음식점,37.50695574,127.0243799
3486,224,912752993,더샌드&케이크,음식점,37.50701888,127.0240496
3487,224,2063233648,쿠시텐,음식점,37.50724949,127.0242408
3488,224,273805966,구슬스 강남본점,음식점,37.50746576,127.0241448
3491,224,68331894,컴포즈커피 논현영동시장점,카페,37.50763696,127.0240792
3492,224,851560589,지지 커피 바,카페,37.50751613,127.0245429
3502,224,1711590479,논현밝은약국,약국,37.50764417,127.024077
3503,225,27491016,GS25 논현영동시장점,편의점,37.50809546,127.0246279
3519,225,12435058,리북집 논현직영점,음식점,37.50862544,127.0236724
3520,225,1350808227,옛날농장 논현점,음식점,37.50796136,127.0238871
3521,225,832441144,광주육전,음식점,37.50854152,127.0243125
3524,225,964112442,우슴,음식점,37.50812618,127.0241812
3527,225,18751402,맛짱떡볶이,음식점,37.50825317,127.0244346
3529,225,26902582,육덕등심 본점,음식점,37.50840095,127.0243803
3530,225,12520269,울트라멘,음식점,37.50783873,127.0243349
3533,225,1120949592,투뿔한우천국 논현점,음식점,37.50852002,127.0237176
3535,225,384134146,프로간장새우 본점,음식점,37.50805491,127.02462
3540,225,1252213645,비와별닭갈비 논현점,음식점,37.50870025,127.0235819
3541,225,12784201,얼짱포차,음식점,37.50831801,127.0245884
3542,225,465676671,백암순대국뼈해장국,음식점,37.50801171,127.0243983
3546,225,314555815,어리숙회 논현점,음식점,37.50810816,127.0241812
3552,225,79016779,청춘닭꼬치 논현직영점,음식점,37.50815232,127.0241631
3554,225,561557412,논현새 강남본점,음식점,37.50822975,127.0244413
3556,225,1817035753,홍로,음식점,37.50846588,127.0241134
3557,225,1102404381,갯벌의진주 논현본점,음식점,37.50810552,127.0238758
3561,225,1648055179,논현구퉁이,음식점,37.50801532,127.024396
3564,225,1817996105,레드버튼 강남논현점,카페,37.50811093,127.0238826
3596,226,11831548,현대순대국,음식점,37.50906412,127.0242358
3598,226,1704991103,물고기자리 논현점,음식점,37.50891817,127.0241871
3607,226,16591823,왕십리벌통곱창,음식점,37.50867488,127.0242583
3610,226,1864095354,막걸리전,음식점,37.50893086,127.023815
3611,226,16706093,장생건강원,음식점,37.50930914,127.0244983
3619,226,729741537,한양김밥국수,음식점,37.50962649,127.0235438
3621,226,10649701,영동죽집,음식점,37.50915775,127.0245977
3626,226,16959032,진도집,음식점,37.50869651,127.0242357
3628,226,1462265508,영동곰탕,음식점,37.50894615,127.023919
3630,226,202302026,황제찹쌀꽈배기 논현영동시장점,음식점,37.50935882,127.0239045
3632,226,1321995782,영동황제꽈배기,음식점,37.50943546,127.0236364
3633,226,1997626322,예삐네집,음식점,37.50946424,127.0238604
3636,226,1090735019,논현물고기자리VIP룸,음식점,37.50891907,127.0241905
3638,226,16036315,중외약국,약국,37.50918491,127.0239723
3652,227,24528855,배꼽집,음식점,37.51017149,127.0240439
3657,227,15220070,구루메스시,음식점,37.51051668,127.023535
3660,227,614830329,가리비야,음식점,37.51023914,127.0236785
3665,227,98133782,룰루랄라하이볼,음식점,37.51017866,127.0242271
3669,227,156295439,본죽&비빔밥cafe 논현점,음식점,37.51045993,127.0234784
3671,227,508712226,1키로탕수육 강남논현점,음식점,37.50971381,127.0239102
3672,227,1675235334,헬로포,음식점,37.51006881,127.0239149
3673,227,602449760,논현145,음식점,37.50918491,127.0239723
3674,227,18865294,페리카나 논현동점,음식점,37.51032555,127.0241366
3675,227,10806656,종로떡집,음식점,37.5092164,127.0241827
3676,227,9922806,일곱시떡집,음식점,37.50947145,127.0238694
3677,227,529134155,영동옛날통닭,음식점,37.50943546,127.0236342
3678,227,1223656944,냉부차,음식점,37.51014175,127.0240868
3679,227,17536024,김가네 논현점,음식점,37.51009134,127.0238923
3680,227,1195651752,미쳐버린파닭 논현점,음식점,37.50974081,127.0240584
3683,227,1577800477,공가네감자옹심이 서울직영점,음식점,37.50999494,127.0238232
3684,227,16904531,형제떡집,음식점,37.50921374,127.0239779
3685,227,484912549,팔도비빔밥,음식점,37.50953989,127.0240538
3686,227,1401434625,핏.세이브포인트,음식점,37.50935431,127.0239113
3687,227,19976665,참숯불구이족발,음식점,37.50944987,127.0236568
3688,227,21415126,고모네 해장국,음식점,37.50932738,127.0234079
3691,227,1156603244,은주네분식,음식점,37.50943546,127.0236342
3692,227,10807242,제일떡집,음식점,37.50928858,127.0236975
3693,227,903430580,가츠명당,음식점,37.50918491,127.0239723
3694,227,619095419,박민주막,음식점,37.50918491,127.0239723
3695,227,798044800,텐트리키친,음식점,37.50918311,127.0239734
3696,227,1452219149,훅,음식점,37.50926236,127.0241454
3697,227,18274102,파스쿠찌 논현역점,카페,37.51032567,127.0235168
3698,227,804679714,커피덴티티,카페,37.50967315,127.0244565
3700,227,1791319734,카페 유유히,카페,37.50990381,127.0244408
3702,227,21194552,보니또커피 논현1호점,카페,37.5104048,127.024286
3705,227,25701734,태백산앉은뱅이보살,카페,37.50984624,127.0240008
3706,227,21416985,뉴욕다방,카페,37.50997242,127.0238063
3729,228,1933187790,주한부탄왕국명예총영사관,공공기관,37.51125904,127.0238768
3730,228,27440279,마장동박현규,음식점,37.51042999,127.024493
3733,228,27273657,원강,음식점,37.5107211,127.0240802
3736,228,20748926,돌마리유황오리,음식점,37.51062738,127.0241605
3738,228,23201423,만석,음식점,37.51098786,127.0237681
3741,228,433350304,신전떡볶이 강남논현점,음식점,37.51143927,127.0237434
3742,228,1385258074,무릉도원 북촌순두부,음식점,37.51054551,127.023544
3744,228,155543624,팔공면옥,음식점,37.51039218,127.0243504
3746,228,11338632,굽네치킨 논현1동점,음식점,37.51140594,127.0237072
3748,228,256534750,BBQ 논현스타점,음식점,37.51042282,127.0243267
3750,228,2008207978,생생돈까스 논현점,음식점,37.51120503,127.0236336
3754,228,1667365640,브루클린 크래프트,음식점,37.51116989,127.0236144
3756,228,183282321,맥시칸치킨 논현점,음식점,37.51125814,127.0238847
3758,228,1862712162,착한피자 강남점,음식점,37.51142846,127.0237343
3759,228,1307340069,영동전마을,음식점,37.51042282,127.0243267
3760,228,1265619948,사쿠라케밥,음식점,37.51141403,127.0237705
3761,228,261177384,어묵생각,음식점,37.51013815,127.0240868
3762,228,22578053,금나라퓨전이자카야,음식점,37.51013815,127.0240868
3763,228,959795230,엠키친,음식점,37.51142395,127.0237468
3768,228,1888921770,샹스라이브피아노바,카페,37.51120498,127.0238655
3789,229,717925503,다이닝 늘,음식점,37.51207359,127.0236486
3794,229,1455370465,북카페레벤,카페,37.51158344,127.023662
3806,230,1055251270,커피마나,카페,37.5125205,127.0235831
3807,230,23106368,카이노스,카페,37.51226087,127.0243103
3808,230,1522026089,카페카이노스,카페,37.5122014,127.024325
3811,230,1676802855,새싹약국,약국,37.51226087,127.0243092
3818,234,23489492,구하갤러리,문화시설,37.51669397,127.0235234
3819,234,645714884,카츠공방 신사역점,음식점,37.51680925,127.0237541
3821,234,475551698,빵토로,음식점,37.51649388,127.0238332
3822,234,16093781,본초강목 논현점,음식점,37.5165967,127.0233378
3823,234,365061365,카페베러디,카페,37.51669036,127.0235324
3824,235,23614691,GS25 강남영동점,편의점,37.5173497,127.0244964
3825,235,8177817,CU 논현영동점,편의점,37.51709394,127.0239035
3837,235,10201006,김수사,음식점,37.51723002,127.023752
3838,235,901836680,현우동,음식점,37.51700736,127.0242881
3840,235,777573518,KFC 신사역점,음식점,37.517422,127.023415
3841,235,53677739,효자동설렁탕 신사점,음식점,37.51729567,127.0243538
3842,235,16327612,장수설렁탕,음식점,37.51702895,127.0244827
3846,235,127372379,키세카츠,음식점,37.51729837,127.0243402
3851,235,18558469,커피휘엘,카페,37.51697507,127.0235868
3854,235,1117449137,코너드커피 논현본점,카페,37.51688491,127.0238718
3855,235,1945037178,일레븐바이원,카페,37.51701457,127.0242791
3856,235,1898484580,에센허브커피,카페,37.51743274,127.023786
3859,235,20622774,커피와만나다,카페,37.51693531,127.0241524
3885,235,617987428,서은약국,약국,37.51736411,127.0245212
3886,235,425145344,리본약국,약국,37.51764713,127.0240089
3887,235,102626585,포레약국,약국,37.51732469,127.0234195
3892,236,21268395,신사파출소,공공기관,37.51842377,127.0241393
3895,236,1106655155,배스킨라빈스 가로수길점,음식점,37.51824636,127.0237139
3897,236,1723559615,타라,음식점,37.51858956,127.0240941
3899,236,655841276,라키,음식점,37.51858339,127.0234414
3901,236,11309745,셀빔,음식점,37.51821483,127.0236912
3903,236,2014026355,매머드익스프레스 신사가로수길점,카페,37.51824636,127.0237139
3906,236,498862733,데일리에디션카페,카페,37.51768493,127.0242069
3935,237,7948209,세븐일레븐 신사4호점,편의점,37.51870855,127.0238181
3947,237,1203779928,핫플레이스뮤지엄,문화시설,37.51948337,127.0240401
3954,237,26856753,브루클린더버거조인트 가로수길점,음식점,37.5190689,127.0240942
3955,237,544200314,네기다이닝라운지,음식점,37.51946535,127.0240219
3956,237,27415522,와라야키 쿠이신보,음식점,37.51861119,127.0240986
3957,237,24009554,이끼롤까스 가로수길본점,음식점,37.51874626,127.0244561
3958,237,709249948,야사이마끼쿠이신보,음식점,37.51868683,127.0242796
3959,237,1527538187,매덕스피자,음식점,37.51905815,127.023782
3960,237,421755171,진도켄이자카야,음식점,37.51888155,127.0237774
3962,237,813709197,몽리,음식점,37.519069,127.0235603
3963,237,13071570,제메이양꼬치 신사점,음식점,37.51873004,127.0244787
3964,237,88230451,스시오마주,음식점,37.51899853,127.024524
3965,237,12519110,켄카,음식점,37.51891029,127.0242571
3966,237,756305726,효계,음식점,37.5191915,127.0237594
3968,237,209486063,하남돼지집 가로수길점,음식점,37.51867615,127.0236461
3969,237,906350008,압구정곱창 가로수길직영점,음식점,37.51879581,127.02449
3971,237,677390319,바다포차돌섬 신사점,음식점,37.51887074,127.0237865
3972,237,21413794,원두막식당,음식점,37.51897151,127.0244709
3973,237,1721004649,소양탐정,음식점,37.51905635,127.0237831
3974,237,390086637,고기마니,음식점,37.51868864,127.0242626
3975,237,118003060,한올,음식점,37.51905635,127.0237831
3976,237,179784869,육구공,음식점,37.51932299,127.0240196
3977,237,1489753448,꾸잉 가로수길점,음식점,37.51885987,127.0240715
3979,237,2018747259,좋은자리,음식점,37.51900754,127.0245331
3980,237,304528904,최정참치,음식점,37.51903006,127.024532
3982,237,10119598,감미옥,음식점,37.51874099,127.0238272
3983,237,294249857,스시쥬고야,음식점,37.51948254,127.0236792
3984,237,1131960584,가로수김밥,음식점,37.5188878,127.0240817
3985,237,13322294,장원식당,음식점,37.51899672,127.0245421
3987,237,784286653,한약먹은생삼겹숯불갈비,음식점,37.51891578,127.0238227
3988,237,2100655420,밀떡팩토리 신사2호점,음식점,37.518785,127.0244957
3989,237,1302332951,한우드림,음식점,37.51868864,127.0242626
3990,237,1293978408,문어집 2호점,음식점,37.51900394,127.024524
3991,237,1401525888,카츠클럽,음식점,37.51888155,127.0238114
3992,237,527212915,한우AWE,음식점,37.51919871,127.0237492
3993,237,2016839341,아가토스,음식점,37.51868864,127.0242626
3994,237,1049862649,씨티헌터,음식점,37.519069,127.023558
3995,237,1372623307,싱싱팔팔,음식점,37.51919871,127.0237492
3996,237,188466628,네기,음식점,37.51948337,127.0240401
3997,237,410654479,케이에프교역,음식점,37.51868683,127.0242785
3998,237,1543201219,인절미,음식점,37.51950138,127.0240627
4001,237,886119092,버튼스,카페,37.51919691,127.0237436
4002,237,931511391,액트4,카페,37.51911395,127.0240603
4004,237,1161651080,라이크커피,카페,37.51908338,127.0237831
4005,237,21828205,클래식 통닭,카페,37.51905815,127.023782
4006,237,19536760,카페마리오,카페,37.51912656,127.0241033
4015,238,525735977,CU 가로수길점,편의점,37.51968162,127.0239123
4028,238,1826379160,라모따,음식점,37.52036188,127.0238548
4031,238,19175443,뮤즈온,음식점,37.52037723,127.0237372
4034,238,1992035693,화요일하이볼바,음식점,37.52018611,127.0242484
4035,238,380640150,오월의가로수,음식점,37.52040333,127.0238582
4036,238,1285912805,타이키,음식점,37.52030416,127.0241331
4042,238,1796796031,파머스포케 신사점,음식점,37.51984738,127.0240277
4043,238,78404699,우후루화,음식점,37.52018611,127.0242575
4051,238,14711154,지니,음식점,37.51920952,127.0237504
4052,238,1685053949,비누크,음식점,37.51949426,127.0236645
4054,238,257769033,컨플릭트스토어커피,카페,37.52014295,127.0238344
4055,238,1673658839,경성미술관,카페,37.52033217,127.023744
4059,238,11186680,오월,카페,37.520352,127.0237462
4061,238,1042479046,컴플릭트스토어 신사본점,카페,37.52016095,127.023891
4067,239,12296469,GS25 신사초롱점,편의점,37.5204888,127.0244612
4077,239,1018957619,핫쵸,음식점,37.52090435,127.0235405
4080,239,2075387362,오라방,음식점,37.52109803,127.0237216
4081,239,15480945,카카오빈,음식점,37.52127825,127.0236153
4088,239,1716307406,신사이제,음식점,37.52090615,127.0235439
4089,239,1285532582,덤밸리,음식점,37.52062583,127.0240925
4090,239,148376454,크렘크럼블,음식점,37.52119716,127.0236424
4091,239,2103815551,쿠시토쿡,음식점,37.52082772,127.0237554
4093,239,1475497384,비비노,음식점,37.52111605,127.0237103
4094,239,13089892,아침이슬,음식점,37.52118818,127.023475
4097,239,1924540315,비어스온탭,음식점,37.52080966,127.023959
4098,239,1863764320,논탄토 신사점,카페,37.52090879,127.0238799
4099,239,14600986,레이브릭스,카페,37.52051764,127.0244386
4100,239,450110126,카페공명 신사가로수길점,카페,37.52061596,127.0238968
4101,239,1200846719,히트커피로스터스 신사,카페,37.52094928,127.0241401
4102,239,2070540693,룩인사이드,카페,37.52066899,127.0245121
4105,239,1044877210,온코드커피,카페,37.52095389,127.0236423
4106,239,1744261809,디어커피앤바,카페,37.52074654,127.0242226
4121,240,1124958698,수제 화과자 양갱 행운의젤다,음식점,37.52204771,127.0236144
4126,240,1080409575,클로즈키친,음식점,37.52181255,127.0235974
4128,240,131459644,윌셔 블러바드,음식점,37.52139084,127.0238099
4135,240,22549791,마일스톤커피,카페,37.52185115,127.0243304
4139,240,495162680,멜렉,카페,37.52141869,127.0241968
4141,240,3042480,알파콜렉티브,카페,37.52218817,127.0241009
4142,240,24926664,재클린스디카페 가로수길점,카페,37.52182967,127.0236019
4143,240,19033250,엘,카페,37.52206032,127.0236065
4156,241,1630132489,에이넷,음식점,37.52243857,127.0244799
4158,241,209578530,그라도스,음식점,37.5223503,127.0243125
4159,241,2000551090,코모루,음식점,37.52255663,127.0243567
4163,241,1210048109,고메사라,음식점,37.5223485,127.0243125
4164,241,1114635665,뉴스틸페이퍼커피 신사 가로수길,카페,37.52245389,127.0244516
4169,242,1423034010,서울신구유치원,"어린이집, 유치원",37.5233595,127.0239825
4170,242,23066713,가로수어린이집,"어린이집, 유치원",37.5233613,127.0239915
4171,242,8430945,서울신구초등학교,학교,37.52348739,127.0242359
4181,242,271976441,가마치통닭 서울압구정점,음식점,37.52376508,127.0233152
4186,242,1745920539,쇼토 압구정본점,카페,37.52384597,127.0243084
4190,243,78014378,세븐일레븐 압구정 11호점,편의점,37.52457937,127.0243856
4218,243,376080576,라무진 신사가로수점,음식점,37.52403161,127.0241501
4219,243,16054592,시골밥상 압구정점,음식점,37.52413443,127.0236207
4221,243,1035938889,중화객잔수,음식점,37.52425153,127.0237644
4222,243,24811901,스파게티스토리,음식점,37.52406759,127.0244488
4223,243,1773527257,리브팜 압구정,음식점,37.52439554,127.0245235
4224,243,286963986,만나당,음식점,37.52415416,127.0240732
4225,243,1370963960,한남동그집 신사가로수길점,음식점,37.52424432,127.0237837
4226,243,1634716949,꿈과 모험의 홍철동산,음식점,37.52438484,127.0239647
4227,243,11634893,한솥도시락 신사동현대고앞점,음식점,37.52415236,127.0240732
4228,243,1034563816,강승월 압구정직영점,음식점,37.52416407,127.0240732
4230,243,26842263,순천만,음식점,37.52406915,127.0244498
4231,243,809152880,윤미식당,음식점,37.52413443,127.0236185
4232,243,970341270,본도시락 압구정역점,음식점,37.5240892,127.0245144
4233,243,1561349086,서커스뮤직 가로수길점,음식점,37.52424162,127.0237712
4235,243,16418173,아지트,음식점,37.52407479,127.024494
4236,243,572334838,콜라보그릴,음식점,37.52415236,127.0240732
4237,243,12983713,요꼬미찌109,음식점,37.52406044,127.0241411
4238,243,13279103,영해성,음식점,37.52435609,127.0235439
4241,243,991858836,세라젬웰카페 압구정직영점,카페,37.52468847,127.0239942
4242,243,1480247229,공차 신사세로수길점,카페,37.524356,127.0240246
4243,243,977417422,커피랑도서관 압구정점,카페,37.52427665,127.0242814
4244,243,565141867,아키커피,카페,37.52417573,127.0243628
4246,243,444128648,컴포즈커피 신사세로수길점,카페,37.52445417,127.0241978
4247,243,968589015,호시탐탐 호떡카페,카페,37.52471634,127.0242997
4248,243,108066694,세라젬카페오가다 신사점,카페,37.52463711,127.0239965
4249,243,1025209726,라곰바리스타,카페,37.52418383,127.0243956
4251,243,145176395,브로앤시스 압구정점,카페,37.52466234,127.0239919
4252,243,1787230891,카페브라이튼,카페,37.5240759,127.0234465
4262,243,576759043,우리원약국,약국,37.52444606,127.0241819
4265,244,12296467,GS25 신현대점,편의점,37.52523535,127.0241188
4274,244,1934939314,헝그리부처 압구정점,음식점,37.52532812,127.0242976
4284,244,10216807,금강약국,약국,37.52539026,127.0244537
4285,261,13119604,세븐일레븐 서초바로세움점,편의점,37.5020533,127.0246881
4294,261,1372079546,하이디라오 강남점,음식점,37.50256415,127.0248014
4295,261,1082092321,순남시래기 신논현역점,음식점,37.50234611,127.0248126
4296,261,860057640,스폰티니 강남점,음식점,37.50196471,127.026052
4297,261,1363211325,29펍 3호점,음식점,37.50198921,127.0252604
4298,261,567076432,이자카야나무 강남역CGV점,음식점,37.50222143,127.026345
4299,261,931061538,배스킨라빈스 강남대로점,음식점,37.50206292,127.0260554
4300,261,1754032877,1988포차,음식점,37.50194239,127.025102
4301,261,1388767798,지구상사 강남점,음식점,37.50153057,127.0253835
4302,261,743906441,고디바 강남점,음식점,37.50216774,127.0246407
4303,261,7906948,봉추찜닭 강남주공공이점,음식점,37.50213312,127.0263959
4304,261,1489893761,나즈드라비 강남대로점,음식점,37.50206112,127.0260566
4305,261,994757355,키토분식 강남스타점,음식점,37.50199473,127.024722
4306,261,203956286,활어회명인수산,음식점,37.50223983,127.0245977
4307,261,22875058,우,음식점,37.50203228,127.0260973
4308,261,13307709,부산횟집,음식점,37.50236771,127.024885
4309,261,7966898,시골집진지상,음식점,37.50236771,127.0248895
4310,261,2027316227,을지포차 강남역점,음식점,37.50154319,127.0253665
4311,261,1229358673,홍제,음식점,37.50170908,127.0248837
4312,261,7836654,도농리,음식점,37.50203949,127.0260882
4313,261,759710306,토즈모임센터 강남컨퍼런스점,카페,37.50178015,127.0254005
4314,261,8105265,커피빈 강남대로센터점,카페,37.50191695,127.0260746
4315,261,1346375924,이디야커피 신논현역점,카페,37.50217496,127.0245954
4316,261,1591613864,커피빈 뉴교보타워옆점,카페,37.50229655,127.0248296
4362,261,822229740,아이약국,약국,37.50217675,127.0246316
4363,261,2035778167,새열린약국,약국,37.5023569,127.0248805
4364,261,25807216,아임약국,약국,37.50154229,127.0253688
4365,261,16443289,행복한수약국,약국,37.50240352,127.0259843
4379,262,9551953,하루스시,음식점,37.50286151,127.0246658
4380,262,114747840,윙스탑 강남점,음식점,37.50336945,127.0257177
4381,262,7833659,도스타코스 강남역점,음식점,37.50278944,127.0246092
4382,262,389689844,던킨 강남대로점,음식점,37.50286868,127.0248558
4383,262,660605488,와촌,음식점,37.50283,127.0245414
4384,262,2019386544,코코이찌방야 강남점,음식점,37.50313703,127.0255706
4385,262,26989072,샌프란시스코,음식점,37.50283083,127.0245519
4386,262,27301930,보니투타르트 강남점,음식점,37.50288675,127.0246047
4387,262,16851038,작은마을,음식점,37.50284712,127.0245414
4388,262,18786676,애플보트,음식점,37.50288128,127.0245835
4391,262,21411721,한국교자,음식점,37.50285793,127.0245459
4392,262,1164939187,쓲,음식점,37.50283989,127.0246307
4393,262,7988088,신코우,음식점,37.50286154,127.0245414
4394,262,20494135,스타벅스 강남대로점,카페,37.50326497,127.0255594
4396,262,85334349,강남 스타타로사주 궁합점성술,카페,37.50293176,127.0247959
4397,262,1345154923,마이블루투모로우 강남대로점,카페,37.50292727,127.0247224
4398,262,825137203,케이크&카페365,카페,37.50285793,127.0245459
4399,262,1502001258,엔터사주타로,카페,37.50285973,127.0245436
4400,262,19537054,카페라아우로라,카페,37.50287234,127.0245957
4437,262,483949279,강남수약국,약국,37.50298763,127.024788
4439,263,16932811,CU 역삼본점,편의점,37.50406142,127.0257406
4449,263,606997515,신논현역 신분당선,지하철역,37.5036165,127.0249262
4459,263,21332166,원조원주추어탕 강남본점,음식점,37.50404346,127.0254737
4460,263,18685434,코다차야 강남점,음식점,37.50416789,127.0250281
4462,263,13287052,강남삼계탕,음식점,37.50388211,127.0257722
4463,263,966657032,팔백집 강남점,음식점,37.5036352,127.0259474
4464,263,497596232,백소정 강남점,음식점,37.50394524,127.0254997
4465,263,1116539400,목구멍 신논현점,음식점,37.50351903,127.025659
4466,263,1203177765,미요,음식점,37.504047,127.0257451
4467,263,2065330676,오술차 강남역점,음식점,37.50395335,127.0254917
4468,263,16963841,신마포갈매기 신논현역점,음식점,37.50381633,127.0258038
4469,263,791944944,김밥속으로 강남본점,음식점,37.50348112,127.0259756
4470,263,1285079372,바다해장집 강남점,음식점,37.50356318,127.0256907
4471,263,422115222,평안도순대국감자탕 강남본점,음식점,37.50374424,127.0258875
4472,263,16083872,불독,음식점,37.5036325,127.025944
4473,263,227102188,뚱보집 신논현점,음식점,37.5036361,127.0259485
4475,263,1194459099,감성캠핑 맥주창고,음식점,37.50347751,127.0260209
4476,263,16089614,케씨펍,음식점,37.50395335,127.0255279
4477,263,2123011772,바른면집 신논현역점,음식점,37.5036361,127.0259485
4478,263,2011748478,퓨전술집U,음식점,37.50355327,127.0256567
4479,263,395651416,파스타앤누들 강남점,음식점,37.50361808,127.025935
4480,263,1370384195,노상포차,음식점,37.50369378,127.0258852
4481,263,19935472,젠틀맨,음식점,37.50349913,127.0260299
4483,263,1052083352,스타벅스 강남교보타워R점,카페,37.50368599,127.024389
4484,263,1551717206,엑스케이프 강남점,카페,37.50355057,127.0256533
4485,263,764467433,프레임바이로찌,카페,37.50383442,127.0254917
4515,263,17317411,강남약국,약국,37.50347873,127.0245359
4516,263,23479463,W약국,약국,37.50415887,127.0251073
4530,264,7967869,신논현역 9호선,지하철역,37.50481111,127.025492
4538,264,1622252928,초이다이닝 강남점,음식점,37.50423082,127.0256841
4541,264,16067712,을지로골뱅이,음식점,37.5042164,127.0256909
4542,264,1227525151,죽이요 본점,음식점,37.50423803,127.0256864
4544,264,364585840,빚짜브루원 신논현점,음식점,37.50452637,127.0255869
4546,264,27510749,누들킹 신논현역점,음식점,37.50459492,127.0252839
4549,264,561053021,루프808,카페,37.50433908,127.0250508
4550,264,222177283,커피빈 신논현역점,카페,37.5045408,127.0255598
4551,264,17361439,에나타 강남1호점,카페,37.50423713,127.0256886
4599,264,349381706,웰스약국,약국,37.50502377,127.0254129
4600,264,282712935,영원약국,약국,37.50453087,127.0256254
4603,264,91054735,레이첼약국,약국,37.50434629,127.0250531
4622,265,23258922,난장캠프,음식점,37.50574011,127.0252141
4623,265,27315574,삼육가 논현직영점,음식점,37.50567257,127.0250173
4624,265,8680507,개성집,음식점,37.50525806,127.0252479
4626,265,11237597,청평갈비,음식점,37.50587441,127.024945
4627,265,569142982,김선생조개찜,음식점,37.50582385,127.0254336
4629,265,519570278,함수라,음식점,37.50569149,127.0250185
4630,265,990766757,상무초밥 강남점,음식점,37.5051967,127.0257003
4631,265,8034320,원조소금구이,음식점,37.50597175,127.024841
4633,265,1840913864,아쭈,음식점,37.5056319,127.0256088
4635,265,1023111229,해탄 신논현점,음식점,37.50595725,127.0252029
4636,265,1419992465,유케집 논현점,음식점,37.50575814,127.0251361
4637,265,201571466,삼산회관 신논현점,음식점,37.50579867,127.0252322
4638,265,1889015115,마요네즈 신논현점,음식점,37.50581665,127.0254132
4639,265,1537543615,투뿔냉삼,음식점,37.50525986,127.0252468
4640,265,356272309,아이스걸크림보이 신논현점,음식점,37.50575903,127.0251938
4641,265,128406163,산솔 신논현점,음식점,37.50563731,127.0256054
4643,265,1169832503,쏘주맥쭈,음식점,37.50549777,127.0250806
4644,265,1076415573,호제야,음식점,37.50551035,127.0252208
4645,265,2058841038,안가 신논현직영점,음식점,37.50565803,127.0256098
4649,265,1522970324,달빛주점,음식점,37.50549597,127.0250625
4651,265,323500416,테판플레이,음식점,37.50598346,127.0248195
4652,265,11840919,다하누유케포차 논현점,음식점,37.50572659,127.0252164
4653,265,8279469,또와포장마차,음식점,37.50565095,127.0250399
4655,265,719309541,삼곱창,음식점,37.50580944,127.0254245
4656,265,23209142,에어리어 51그램,음식점,37.50568686,127.02561
4657,265,317045283,M3레드펍,음식점,37.50574461,127.0252073
4659,265,95240648,다크그림,카페,37.50531749,127.0254515
4661,265,1784069174,올리버브라운 신논현점,카페,37.5051319,127.0253451
4663,265,802155969,ZIN보드카페,카페,37.50528059,127.0252547
4711,265,1796841547,신논현약국,약국,37.50507779,127.0256007
4731,266,8423275,장어의전설,음식점,37.50615086,127.0256904
4736,266,21418785,화랑불닭발,음식점,37.50685831,127.0249544
4737,266,1349619519,일월육일 강남신논현점,음식점,37.50678628,127.0247055
4740,266,171885256,완미족발 논현본점,음식점,37.5066132,127.0251307
4742,266,62205729,엄청난족발,음식점,37.50586076,127.0255874
4743,266,1632152239,소제이 서울본점,음식점,37.50599685,127.0254133
4745,266,1524732765,냠냠족발보쌈 강남논현본점,음식점,37.50668525,127.0252518
4746,266,23066867,하남돼지집 신논현역점,음식점,37.50683671,127.0248367
4747,266,429876967,대포집 논현본점,음식점,37.5060599,127.025532
4753,266,817741594,제로밥상 강남점,음식점,37.50615824,127.024901
4762,266,1490512389,명불허전 원조골뱅이 논현점,음식점,37.50656007,127.024995
4763,266,890840779,랑데뷰,음식점,37.50584814,127.0256055
4764,266,1025595187,완미족발 논현2호점,음식점,37.50693577,127.0250618
4766,266,712449781,0910 멸치 집 논현직영점,음식점,37.50658618,127.025064
4770,266,332630576,인터랙트,카페,37.50648351,127.0248909
4772,266,169119107,GSM테이블,카페,37.50688892,127.025063
4773,266,704454824,치키차카초코 강남논현점,카페,37.50605003,127.0253386
4774,266,303377442,목포항뱃머리,카페,37.50607611,127.0255603
4793,267,1750328215,포크댄스(Pork Dance),음식점,37.50708251,127.0256398
4806,267,221052752,마포고깃간 신논현점,음식점,37.50677169,127.0255323
4812,267,1901712097,스텔라떡볶이 강남논현점,음식점,37.50720158,127.0250031
4826,267,535027383,무지개맥주 서울논현점,음식점,37.50725845,127.0245225
4828,267,1182515240,판판서양주점,음식점,37.50693397,127.025063
4829,267,463179829,100년영동생갈비,음식점,37.50713602,127.0240044
4830,267,1298461953,라운지7485,음식점,37.50725761,127.0242284
4831,267,524100953,씨원라이브클럽,음식점,37.50688712,127.0250811
4832,267,440305411,엔엠에프,음식점,37.50735943,127.0241719
4833,267,1142896559,크라운족발 강남직영점,음식점,37.50699248,127.0253175
4837,267,254909876,더랩,카페,37.5075323,127.0247736
4855,268,755879178,술탕,음식점,37.50836935,127.0247004
4857,268,1797095095,오늘밤에포차,음식점,37.50815936,127.0249842
4858,268,2124883531,외가집,음식점,37.50828093,127.0252727
4861,268,1249872658,달꼬미 논현점,음식점,37.50778081,127.0255383
4862,268,293608091,만구기네 화로불닭발,음식점,37.50832505,127.0253971
4863,268,242075937,영동반점,음식점,37.50858182,127.0254775
4865,268,2081184354,이자카야 원,음식점,37.50834412,127.0247241
4866,268,97605545,벌떡포차 논현본점,음식점,37.50818639,127.0249616
4867,268,1403829441,고씨네고추장찌개,음식점,37.50798828,127.02443
4868,268,1762174772,라운지칠,음식점,37.50782432,127.0243394
4869,268,364241355,이시야S&D,음식점,37.50812168,127.0241789
4870,268,2046081960,신의주찹쌀순대 신논현역점,음식점,37.50805861,127.0241619
4871,268,1026718223,별빛나포차,음식점,37.50801081,127.0243972
4872,268,567146260,지랄닭발 강남점,음식점,37.50822505,127.0253416
4873,268,1425278820,믹스드테이블,음식점,37.50784684,127.0243225
4874,268,694829340,만선항조개집,음식점,37.50853792,127.024317
4875,268,848202053,페리테일,음식점,37.50816296,127.0249842
4876,268,11238586,쿠쿠도시락 논현점,음식점,37.50853792,127.0243216
4877,268,1067751588,야끼니꾸소량 논현점,음식점,37.50853611,127.0243148
4878,268,1122663281,맛미포차,음식점,37.50812618,127.0241812
4879,268,506124957,청춘양꼬치포차,음식점,37.50801532,127.0243847
4880,268,1528574340,유사길,음식점,37.50858182,127.0254775
4881,268,25044619,프로간장새우 3호점,음식점,37.50809096,127.0245748
4882,268,1413107726,RMW,음식점,37.50858182,127.0254775
4883,268,1047470458,천지함,음식점,37.50810186,127.0241676
4884,268,635792213,취중다마(한걸음더),음식점,37.50812618,127.0241812
4885,268,380150907,아란포차,음식점,37.50799549,127.0244322
4886,268,2011382235,기쁨이네집,음식점,37.50853611,127.0243148
4887,268,390735091,이자카야소영 논현점,음식점,37.50809645,127.0241699
4888,268,691410978,피노키오피자,음식점,37.50828994,127.025293
4889,268,1803948553,다이닝팩토리,음식점,37.50815232,127.0241631
4891,268,362170304,애크미,카페,37.50778442,127.0255428
4903,269,22045872,반피차이,음식점,37.50937401,127.0245073
4904,269,1726579025,헤비스모커,음식점,37.50860254,127.0254798
4905,269,1681389801,주방류,음식점,37.50946765,127.0248071
4917,269,1923857949,혼마찌,음식점,37.50891817,127.0241871
4921,269,1685219587,두레식당,음식점,37.50880824,127.0242176
4922,269,1644005512,자자 영동,음식점,37.50900017,127.0241136
4923,269,1786514147,막뚱이두마리치킨,음식점,37.50880464,127.0241859
4924,269,801167820,호빈,음식점,37.50867309,127.0241814
4925,269,1597620454,지니스오븐,음식점,37.50925049,127.0249077
4928,269,420681592,한입한쌈 강남논현점,음식점,37.50940717,127.0253307
4929,269,1837671510,오꼬앤타코,음식점,37.50892244,127.0253068
4930,269,740099087,쭈꾸야쭈꾸미,음식점,37.50869651,127.0242402
4933,269,1277151483,은서닭국수,음식점,37.50916856,127.0245842
4934,269,1960068657,후아바베큐 논현점,음식점,37.50900975,127.0257151
4935,269,27281842,프로간장새우 4호점,음식점,37.50839735,127.0243758
4936,269,27281831,프로간장새우 2호점,음식점,37.50841897,127.0243668
4937,269,10038979,매불닭발,음식점,37.50931342,127.0255479
4938,269,203592182,꿀떡 논현점,음식점,37.50922619,127.0247697
4939,269,533556587,위너스페이스,음식점,37.50896019,127.0257027
4940,269,1315775230,셀렉커피랩 논현직영점,카페,37.50895209,127.025697
4941,269,708096313,영동다방,카페,37.50922799,127.0247697
4942,269,1863136613,쿡히앤컵히,카페,37.50932161,127.0251995
4943,269,1510906528,방앗간,카페,37.50873686,127.0251563
4944,270,1495557148,세븐일레븐 논현영동점,편의점,37.51048398,127.0248413
4945,270,251026785,더까까주까 프렌즈 논현점,편의점,37.50992527,127.0252393
4957,270,11607082,논현양꼬치,음식점,37.50992156,127.025729
4961,270,16997607,이조명과,음식점,37.50969362,127.0256645
4963,270,1827179958,마라식객,음식점,37.51039204,127.0249827
4965,270,11054473,빨간모자피자 논현점,음식점,37.51015238,127.024969
4966,270,2037954403,오쿠다,음식점,37.50967291,127.0256068
4967,270,306144285,한식의품격 강남논현점,음식점,37.51016125,127.0256104
4970,270,565449295,화산아구찜,음식점,37.50952513,127.025687
4971,270,1914813566,들꽃정원,음식점,37.50967291,127.0256215
4974,270,565328033,스시박스앤샐러드,음식점,37.50950711,127.0256814
4975,270,593367337,이모네로,음식점,37.50968102,127.0256136
4977,270,1526542163,게브라더스,음식점,37.50968012,127.0256113
4980,270,2040076593,인생김치찌개 논현점,음식점,37.50967381,127.025617
4983,270,1798564786,아카이브146,카페,37.50974333,127.0249463
4988,270,876388498,SOS커피&샌드위치 논현점,카페,37.50968102,127.0256136
4989,270,1719463868,쎌덮,카페,37.50968012,127.0256113
4991,270,763749791,르셀약국,약국,37.50978827,127.0254688
5013,271,23032522,석촌부페,음식점,37.51055599,127.0251547
5014,271,798987002,678치킨,음식점,37.51070015,127.0251773
5016,271,149966787,위밋,카페,37.51110922,127.0251175
5018,271,1338683919,쥴리스커피,카페,37.51111904,127.0255326
5025,272,1465574297,부엉이식당,음식점,37.51174168,127.025327
5026,272,890941402,목포집,음식점,37.51132629,127.0254569
5027,272,513105967,풀파워 논현점,음식점,37.51175249,127.0252976
5030,273,12296488,GS25 논현금옥점,편의점,37.5129563,127.0249971
5039,273,21541442,야카페,카페,37.51270038,127.0251554
5047,274,1369568623,낰낰,음식점,37.51388971,127.0251603
5048,274,19899211,토아빈커피,카페,37.51344635,127.0254316
5050,275,1091920463,수목금토카페,카페,37.51453115,127.0254863
5051,277,458448023,카페282,카페,37.51665391,127.0254961
5063,278,13092450,오케이왕족발,음식점,37.51728835,127.0248809
5064,278,24203999,보틀그린,카페,37.51746665,127.0253493
5067,278,1186524774,카페크레마,카페,37.51752,127.0244432
5087,279,1926007097,탭샵바 도산대로점,음식점,37.51797395,127.0251798
5088,279,787825791,육다시구,음식점,37.51773967,127.0252849
5089,279,1390925515,특별한오복수산 가로수길점,음식점,37.51797125,127.0251798
5090,279,1211571103,은화계 도산대로점,음식점,37.51816045,127.0252251
5091,279,25116178,6월 5일,음식점,37.5180703,127.0254694
5092,279,1613121894,숨스,음식점,37.51805227,127.0254773
5093,279,97693285,스시야 도산대로점,음식점,37.51797395,127.0251798
5094,279,1973530077,아마리오,음식점,37.51776414,127.0246028
5096,279,16083036,플라워앤커피,음식점,37.51805227,127.0254784
5098,279,867397395,레몬트리카페,카페,37.51821081,127.025655
5111,280,310484607,갤러리9.5서울,문화시설,37.51886684,127.0252253
5118,280,714223410,칙피스 가로수길점,음식점,37.51911562,127.0247277
5120,280,7913187,뻐꾸기,음식점,37.51901102,127.0251304
5121,280,24371711,쮸즈,음식점,37.51951298,127.0246192
5124,280,8467246,양철지붕 본점,음식점,37.51899659,127.0251575
5126,280,20262536,삼백집 가로수길직영점,음식점,37.51910474,127.0250489
5127,280,323978195,곰탕랩,음식점,37.51886323,127.0252253
5130,280,27087869,김봉남포장마차 가로수길근처점,음식점,37.51949762,127.024859
5134,280,1804694090,야키토리요이야마,음식점,37.51930026,127.0250241
5135,280,1450978661,포케올데이 신사점,음식점,37.51940847,127.0246203
5137,280,16056392,완소,음식점,37.51889218,127.0246914
5142,280,423725935,보바베어,음식점,37.5194075,127.0249291
5143,280,1869900758,장한우,음식점,37.51912463,127.0247334
5144,280,24166220,청담생골뱅이,음식점,37.51898578,127.0251575
5149,280,1738377524,나나상회,음식점,37.51896783,127.0248306
5151,280,840530870,하이드어웨이,음식점,37.5189876,127.025084
5153,280,23391358,서초동연가 신사4호점,음식점,37.5189426,127.0248362
5155,280,494641036,커브,음식점,37.51868864,127.0242626
5156,280,9584345,해진수사,음식점,37.51860398,127.0241122
5157,280,1334396208,UMX,음식점,37.51907611,127.0240716
5158,280,1439007159,대서에프앤비,음식점,37.51951203,127.024859
5159,280,676584586,텔러스9.5,카페,37.5188272,127.0252027
5160,280,14607477,사주카페술,카페,37.51927421,127.0246735
5161,280,720524567,비비카페,카페,37.51938318,127.0249212
5163,280,21542911,슬로우시티,카페,37.51950488,127.0246057
5165,280,1877496110,에어인텔리전스라운지,카페,37.51903253,127.0256417
5168,280,738681422,바른약국,약국,37.51903163,127.0256428
5169,281,921754409,세븐일레븐 신사무지개점,편의점,37.51985792,127.0253116
5175,281,1832605755,더쇼룸,문화시설,37.52035086,127.0248752
5182,281,1336798749,무아,음식점,37.51969209,127.0255423
5184,281,27497094,버틀러,음식점,37.51960214,127.0248184
5186,281,696940323,야미케이크,음식점,37.51976795,127.0247087
5190,281,1788071646,도순,음식점,37.52000749,127.0252891
5195,281,1308982251,피디티,음식점,37.51984354,127.0251352
5196,281,2083475980,스태틱,음식점,37.51975894,127.0247132
5198,281,2116016929,엘피,음식점,37.52004367,127.0246149
5200,281,21417012,능제,음식점,37.5203266,127.0245562
5204,281,21554828,야카모즈,카페,37.51984706,127.0255288
5205,281,1172107506,커피파베스,카페,37.52004548,127.0246138
5207,281,1351023008,늘스위티,카페,37.5196425,127.0257097
5225,282,1492088819,맥파이앤타이거 신사티룸,카페,37.52055724,127.0246332
5227,282,1798364561,코너테라스,카페,37.52132301,127.0250599
5229,283,27539715,CU 신사프리미어점,편의점,37.52148343,127.0248597
5233,283,37429525,기포,음식점,37.52181485,127.025534
5234,283,1749009106,오셀리에,음식점,37.5219268,127.0244798
5235,283,964678649,몰타아일랜드,음식점,37.52221508,127.0246495
5236,283,86251341,통통 신사가로수길점,음식점,37.52181485,127.025534
5238,283,1438993234,홍만당 가로수길점,카페,37.5219313,127.0244741
5239,283,2049782012,마일드라이프,카페,37.52146722,127.0248111
5242,283,1873409699,베를린(Berlin),카페,37.52181665,127.0255284
5243,283,1225623130,콜마인,카페,37.52194288,127.0251268
5245,284,1220846393,오치균미술관,문화시설,37.52271951,127.0252719
5246,284,17100607,오늘잡은안동갈비 신사점,음식점,37.52255004,127.0256791
5247,284,26550205,하이볼가든,음식점,37.52288897,127.0249688
5253,284,2009264,메디치 신사,음식점,37.52228263,127.0247921
5258,284,991218108,브렌다플라워카페,카페,37.52266188,127.0251271
5259,284,1872560550,구구구,카페,37.52298444,127.0251396
5280,285,22555870,광림아트센터,문화시설,37.52393406,127.0252994
5282,285,8149785,강남돌곱창,음식점,37.5238999,127.0249216
5284,285,17122716,우리김밥,음식점,37.52397385,127.0245981
5285,285,2019382836,파리바게뜨 압구정신구초교점,음식점,37.52305462,127.0255797
5286,285,1584134665,스모크,음식점,37.52390982,127.0249125
5288,285,506926556,요거트아이스크림의정석 신사점,카페,37.5238242,127.0250041
5291,286,27371823,광림어린이집,"어린이집, 유치원",37.5243827,127.025596
5321,286,23520901,광림아트센터 BBCH홀,문화시설,37.52404214,127.0254986
5325,286,1514808377,청담미역,음식점,37.52480983,127.0253224
5332,286,8111793,퀴즈노스서브 압구정점,음식점,37.52496496,127.0245893
5339,286,7983215,신바람야유회,음식점,37.52444958,127.0245847
5350,286,1188064760,루체포레,카페,37.52401692,127.0254624
5387,287,26426072,메이드,음식점,37.52492149,127.0256346
5389,287,2415009,잭슨피자 압구정점,음식점,37.52497937,127.0246029
5390,287,10216264,길손,음식점,37.52505849,127.0254039
5391,287,980628191,미쓰냉삼,음식점,37.52483054,127.0253778
5392,287,7990411,압구정 샤브샤브 본점,음식점,37.52496753,127.0251991
5394,287,118887441,오또상라멘,음식점,37.52503057,127.0253462
5395,287,13281725,본죽 압구정역점,음식점,37.52553616,127.0247513
5397,287,1359742601,삼청당 압구정점,음식점,37.52507292,127.0253179
5398,287,12683773,장충동 왕족발보쌈365 압구정점,음식점,37.52565324,127.0249742
5399,287,14512239,나라라파닭치킨 압구정동점,음식점,37.52559921,127.0248384
5400,287,21319279,두루두루,음식점,37.52492149,127.0256301
5401,287,229471185,갤러리,음식점,37.52492059,127.0256324
5402,287,1688655704,로와이드 압구정점,카페,37.5250622,127.0248767
5403,287,1094114775,스타벅스 압구정현대아파트점,카페,37.5251918,127.0255521
5405,287,1403829026,써니사이드151,카페,37.52574061,127.0250953
5406,287,877420218,더리터 신사점,카페,37.52481882,127.0254197
5407,287,8159224,허형만의압구정커피집,카페,37.52565325,127.0249335
5408,287,641994140,크로네,카페,37.52508914,127.0253292
5440,304,952098942,이마트24 R강남역삼점,편의점,37.50067155,127.0270422
5441,304,16983065,need&buy,편의점,37.50077073,127.026712
5461,304,204596825,시티극장,문화시설,37.50039405,127.0269845
5463,304,1193848374,쉐이크쉑 강남대로점,음식점,37.50008879,127.0261622
5464,304,14660285,홀릭스,음식점,37.50002306,127.025988
5465,304,981684729,팀호완 강남역점,음식점,37.50010836,127.0272886
5466,304,582554568,노리타,음식점,37.50082477,127.0268252
5467,304,2066343209,스시이안앤 강남역점,음식점,37.49996868,127.0273903
5468,304,1700938975,맘스터치 강남대로점,음식점,37.50030962,127.0258151
5469,304,1890116013,밀도 강남점,음식점,37.49980767,127.0262017
5470,304,1999967021,시선 강남2호점,음식점,37.49997589,127.0274005
5471,304,1235956141,누구나홀딱반한닭 강남역점,음식점,37.50052586,127.0257959
5472,304,322165098,복포차,음식점,37.50051682,127.0259294
5473,304,1375279,맘스피자 강남대로점,음식점,37.50030962,127.0258151
5474,304,8310343,미스터와우 강남1호점,음식점,37.49982277,127.0271641
5475,304,920171764,레드버튼 시네마강남점,카페,37.50039405,127.0269845
5476,304,17101526,커피빈 강남역먹자골목점,카페,37.50009845,127.027292
5477,304,897071174,데블다이스 보드게임카페 강남점,카페,37.50010745,127.027327
5478,304,423350309,고양이카페 모카 강남점,카페,37.50010386,127.0272886
5479,304,171959126,할리스 강남역2점,카페,37.50039585,127.0269833
5480,304,187496328,데블다이스 보드게임카페 강남대로점,카페,37.50082477,127.0268252
5481,304,27250421,카페허,카페,37.49980136,127.0262277
5482,304,13303760,크레미노,카페,37.50077434,127.026712
5528,304,1583948845,강남성지약국,약국,37.49980046,127.0262107
5529,304,320878863,나이스약국,약국,37.50013835,127.026169
5530,304,852117059,에이트약국,약국,37.50033208,127.0260786
5531,304,695043199,굿약국,약국,37.49995999,127.025971
5532,304,8730678,강남씨티약국,약국,37.49988765,127.0271189
5533,304,1988825816,마니약국,약국,37.50077973,127.0267629
5534,304,18215844,위메이크약국,약국,37.50039225,127.0269833
5552,305,1725176424,파이브가이즈 강남,음식점,37.5011674,127.0256831
5553,305,1665040674,중경마라탕 강남역점,음식점,37.50124277,127.0270922
5554,305,1390075695,청담이상 강남역점,음식점,37.50113104,127.0271419
5556,305,31188196,유가네닭갈비 강남역점,음식점,37.50159975,127.0262939
5557,305,273280172,사누키제면소,음식점,37.50086527,127.0270039
5558,305,19197483,놀부부대찌개 강남씨티점,음식점,37.50086523,127.027204
5560,305,1400032327,다미곱창,음식점,37.50125629,127.027082
5562,305,1232109211,멕시타이거,음식점,37.50113013,127.0271487
5563,305,21414255,이공삼공김밥전문점,음식점,37.50120324,127.0266127
5564,305,26895488,퐁듀에 빠진 쭈꾸미 본점,음식점,37.50090756,127.0272595
5565,305,15542235,우에노,음식점,37.5011058,127.02716
5566,305,138138893,제이앤더블류컴퍼니 청담이상강남역점,음식점,37.50113104,127.0271464
5567,305,744732254,하이푸드강남,음식점,37.50123567,127.0266308
5569,305,23998451,설빙 강남역점,카페,37.50113104,127.0271464
5570,305,833631082,노티드 강남역,카페,37.50081869,127.0257994
5571,305,91834614,세븐클루스 강남2호점,카페,37.50122125,127.026633
5572,305,511815556,아지트룸카페,카페,37.50113103,127.027151
5575,305,1143207364,데블다이스 보드게임카페 강남3호점,카페,37.50113104,127.0271419
5576,305,26869624,프리존사주카페 강남2호점,카페,37.50127521,127.0270741
5577,305,331166056,데블다이스 보드게임카페 강남4호점,카페,37.50113104,127.0271419
5624,305,16505031,강남웰약국,약국,37.50119331,127.0266873
5626,305,281415566,강남드림약국,약국,37.50117734,127.0255609
5629,306,7949987,세븐일레븐 역삼8호점,편의점,37.50194564,127.0267351
5639,306,10811159,CGV 강남,문화시설,37.50165739,127.0263912
5647,306,840177469,무한숯불양꼬치,음식점,37.5022412,127.026613
5648,306,16906588,월매네주막 강남본점,음식점,37.50129719,127.0254954
5649,306,7835959,더블린,음식점,37.50202859,127.0264637
5650,306,831871202,샤브로21 강남점,음식점,37.50231597,127.0266764
5652,306,1301457350,꾸아 강남역CGV점,음식점,37.50192942,127.0267339
5653,306,794775769,맘스터치 강남역점,음식점,37.50163206,127.0268707
5654,306,1993593118,연돈볼카츠 튀김덮밥도시락 강남CGV점,음식점,37.50164299,127.0263358
5657,306,1132994878,뚜레쥬르 강남직영점,음식점,37.50164299,127.0263358
5659,306,971465273,리파인 강남역점,음식점,37.50162936,127.0268684
5660,306,1847101996,멘츠루 강남점,음식점,37.50204112,127.0268516
5663,306,1686545793,카츠공방 강남점,음식점,37.50223309,127.026587
5665,306,512626564,킹케밥 강남점,음식점,37.50158701,127.0268458
5666,306,1840748334,달콤왕가탕후루 강남역점,음식점,37.50188612,127.0269726
5667,306,1480956766,탕화쿵푸마라탕 강남직영점,음식점,37.50164299,127.0263448
5668,306,2118388970,카츠공방,음식점,37.50223309,127.026587
5669,306,792070736,세계맥주창고,음식점,37.50160321,127.0269295
5670,306,18828168,몰타,음식점,37.50162124,127.0268888
5672,306,112216721,이찌타코2,음식점,37.50136386,127.0255112
5673,306,1838217381,룰루마라 강남점,음식점,37.50164299,127.0263369
5675,306,12119492,커리스토리,음식점,37.50242142,127.0265181
5678,306,24962158,현성에프엔비 강남역CGV,음식점,37.50165019,127.0263731
5679,306,23700304,제이이글로벌,음식점,37.50192762,127.0267351
5681,306,514917966,선수촌,음식점,37.50136206,127.0255135
5682,306,1211948676,레드버튼 강남점,카페,37.50193129,127.0264523
5684,306,113668696,스타벅스 강남오거리점,카페,37.50211504,127.0266718
5685,306,1429324904,퍼즐팩토리 강남점,카페,37.50205013,127.0268482
5686,306,467257472,강남커피,카페,37.50229523,127.0267171
5689,306,1413212886,메가MGC커피 강남CGV점,카페,37.50178894,127.0263957
5690,306,26303242,반지만들기 반지공방 8그램,카페,37.50223399,127.0265859
5691,306,1778307046,헤이티 강남점,카페,37.50164299,127.0263358
5692,306,1385440957,히히냥냥,카페,37.50189511,127.0270427
5693,306,1390599294,다이스타운,카페,37.50223399,127.0265859
5694,306,1768952941,투썸플레이스 강남CGV스윗바점,카페,37.50165379,127.0263731
5695,306,1107703529,블랙티드 강남점,카페,37.50164299,127.0263369
5696,306,27394957,가람역학연구소,카페,37.50229523,127.0267171
5697,306,907872961,수면캡슐카페,카페,37.50172591,127.0262374
5744,306,7968902,스타약국,약국,37.50136114,127.025596
5747,307,20037779,GS25 강남태양점,편의점,37.50296555,127.0268621
5755,307,279490770,까사생갈비,음식점,37.50314951,127.0261587
5756,307,528537292,훠궈나라 강남점,음식점,37.50243223,127.0265272
5757,307,14095777,화기애애 강남점,음식점,37.50287192,127.0265273
5759,307,1490195491,미미옥 강남신논현점,음식점,37.5032855,127.0264392
5762,307,438890423,녘,음식점,37.50277458,127.0266449
5764,307,930539138,돼봉삼겹살 신논현점,음식점,37.50332251,127.0261384
5765,307,700924311,낙타브루잉,음식점,37.50290432,127.0266676
5766,307,1821221395,육미안 강남점,음식점,37.50300891,127.0263419
5769,307,584934177,스아게 강남점,음식점,37.50296916,127.0268485
5770,307,1547402488,석암생소금구이 강남점,음식점,37.50332251,127.0261384
5771,307,1130167991,밤별포차라운지,음식점,37.50247184,127.0266674
5772,307,1831567210,치스타리에 강남역점,음식점,37.50300891,127.0263419
5773,307,300352738,호미호식,음식점,37.50249703,127.0268438
5774,307,599205357,감탄성신초밥,음식점,37.50292595,127.026645
5777,307,1983620449,영차떡볶이,음식점,37.50249703,127.0268427
5780,307,508543086,태양의토마토라멘 강남점,음식점,37.5029765,127.0262243
5782,307,314617981,본인브라질,음식점,37.50300891,127.0263419
5784,307,931280149,잭슨하이볼,음식점,37.50290342,127.0266664
5785,307,1536002725,카츠루와 신논현점,음식점,37.50290072,127.0266563
5788,307,982253156,드래곤짬뽕,음식점,37.50249703,127.0268438
5789,307,27302378,하와이안새우트럭,음식점,37.50329729,127.0261203
5790,307,1528582359,코드케이 강남점,카페,37.5025728,127.0264775
5792,307,405367531,프라텔리,카페,37.502843,127.0269164
5793,307,426256498,집사의하루 강남점,카페,37.50277819,127.0266585
5794,307,544067694,본부케,카페,37.50306924,127.0265263
5797,307,1233664289,뉴욕러브베이글 강남본점,카페,37.50260972,127.0265442
5799,307,1277179854,차백도 강남역점,카페,37.5029765,127.0262243
5817,307,597063002,성지약국,약국,37.50302693,127.0263464
5835,308,850873071,정돈 강남점,음식점,37.50390901,127.0263886
5838,308,1438270542,은하수,음식점,37.50372699,127.0264688
5839,308,18099336,대통령 역삼점,음식점,37.50382349,127.0260527
5841,308,15215614,대가,음식점,37.50339453,127.0263918
5842,308,1939290114,도호,음식점,37.5040793,127.0263649
5843,308,124391358,갓잇 강남점,음식점,37.50414245,127.0260437
5844,308,1326173746,미분당 강남점,음식점,37.50379462,127.0262155
5846,308,138270119,이구펍 4호점,음식점,37.50375501,127.0260662
5851,308,826464180,역삼돈,음식점,37.50389812,127.0267109
5852,308,104750043,연하동 신논현점,음식점,37.50395315,127.0264361
5854,308,125643717,틴틴,음식점,37.50357929,127.0261645
5855,308,1485083736,멜로우가든 강남본점,음식점,37.5039496,127.0261816
5858,308,2061894180,베네티,음식점,37.50375591,127.0260492
5861,308,1860026973,매우매오 강남역별관,음식점,37.50354676,127.0266033
5866,308,1183163941,연남토마 강남점,음식점,37.50312234,127.0267807
5868,308,1944417879,요미우돈교자 강남점,음식점,37.50403165,127.0259317
5869,308,853143448,이치규 강남신논현점,음식점,37.50353053,127.0266395
5870,308,1185621449,뜨돈 강남본점,음식점,37.50403255,127.0259215
5874,308,18380092,본도시락 신논현역점,음식점,37.50396493,127.0261251
5876,308,1505562101,구삼육 신논현본점,음식점,37.50346843,127.0263477
5880,308,84268936,가배도 신논현점,카페,37.50401452,127.0259441
5881,308,1329278211,까치화방 강남역점,카페,37.50326653,127.0266835
5883,308,1556609550,스크렘,카페,37.50372609,127.0264643
5895,309,18118076,세븐일레븐 역삼보브점,편의점,37.50472179,127.0260349
5928,309,148897210,미타우동 비스트로,음식점,37.50460013,127.0261592
5937,309,54919917,리즈제빵소,음식점,37.50513179,127.0258654
5959,310,27491418,GS25 논현미래점,편의점,37.50555701,127.026094
5983,310,16961410,감나무집,음식점,37.50558307,127.0264276
5984,310,735579064,메리가든,음식점,37.50518584,127.0259106
5986,310,27403305,광개토정육식당,음식점,37.50603994,127.0261303
5987,310,16329129,유쾌한접시 신논현본점,음식점,37.505712,127.0260307
5989,310,26465928,천상애장어가 강남신논현점,음식점,37.50571565,127.0258
5992,310,1775579634,신사고집 신논현점,음식점,37.50579214,127.0262399
5993,310,1041906529,아메리칸피자 강남논현점,음식점,37.50593549,127.0258498
5994,310,13809885,동래정 신논현직영점,음식점,37.50600576,127.0258917
5995,310,1895959062,부산아지매국밥 신논현역점,음식점,37.50572625,127.026793
5996,310,858458994,호사양곱창 논현점,음식점,37.50589768,127.0257073
6002,310,74849337,굴다리식당 강남점,음식점,37.50533979,127.0264513
6003,310,2076229147,토리키치 신논현점,음식점,37.50595892,127.0258204
6005,310,26092407,내당한우,음식점,37.5059463,127.0258724
6006,310,1488150926,이찌방라멘 카츠카레 논현점,음식점,37.50594449,127.0258702
6007,310,2009584647,호텔더디자이너스 리즈강남프리미어 주아드비브르,음식점,37.50521107,127.0259174
6008,310,32816283,SOS커피&샌드위치 논현점,음식점,37.50594449,127.0258702
6012,310,190790649,제이제이 벤처스,음식점,37.5059463,127.0258724
6013,310,80799840,팔공키친,음식점,37.50594449,127.0258702
6014,310,684605350,주식회사 정크루,음식점,37.50594449,127.0258702
6015,310,779440429,드리밍컴퍼니,음식점,37.50592377,127.0258747
6017,310,1875574655,개랑놀아주는남자,카페,37.50578944,127.0262388
6019,310,1044925351,이룸에이트,카페,37.50531644,127.0261142
6020,310,1551955711,카페프라미스,카페,37.50526874,127.0258677
6021,310,299886145,커피빈 논현201-5번지점,카페,37.50550115,127.0260917
6022,310,1693374295,발도스커피 위더스논현점,카페,37.50586689,127.0264096
6023,310,1332332802,베러댄스윗,카페,37.50574429,127.0266912
6025,310,896806875,더블유비아이엠2,카페,37.50587049,127.0264153
6053,310,604386656,별하약국,약국,37.50528032,127.0264535
6056,310,235347093,스마일약국,약국,37.50540912,127.026682
6058,311,825128822,CU 강남논현타운점,편의점,37.50629579,127.0263204
6059,311,775130883,세븐일레븐 논현한바위점,편의점,37.50684732,127.0257789
6073,311,8215974,노들강 본채,음식점,37.50622198,127.0259788
6086,311,1324166112,언덕집 매운등갈비찜,음식점,37.50603617,127.0268768
6091,311,433955037,오쓰,음식점,37.50619048,127.0258307
6092,311,838316257,족발장인네칼국수,음식점,37.50631096,127.0269402
6094,311,526232148,감정선 프로젝트베이킹 강남점,음식점,37.50627597,127.0263159
6107,311,1474198941,텐션커피&비어,카페,37.50673552,127.026126
6110,312,543034478,GS25 논현초교점,편의점,37.50747798,127.0259815
6126,312,27548800,후문포차,음식점,37.50738431,127.0258209
6127,312,16705705,보물섬,음식점,37.50763282,127.0265788
6129,312,1460200732,논현골흑염소,음식점,37.50763281,127.0266059
6130,312,292604493,기대만족 강남논현본점,음식점,37.50723648,127.0261217
6131,312,585596051,김천재의육회반한연어 신논현본점,음식점,37.50751023,127.0268004
6133,312,1984991442,우리동네횟집,음식점,37.50743382,127.0260132
6134,312,242735455,LP바 비틀즈,음식점,37.5074256,127.0265301
6135,312,745653653,논현보물섬 별관,음식점,37.50761393,127.0264238
6136,312,16059110,맛집쪼가리포차,음식점,37.50756364,127.0256943
6137,312,2086033758,그린레시피,음식점,37.5076168,127.0256943
6138,312,1103424654,퓨전포차 정,음식점,37.50704903,127.0262958
6139,312,722312634,탄지로,음식점,37.50723558,127.0261206
6140,312,990947189,신논현보물섬,음식점,37.50759411,127.0264385
6141,312,907196485,오빠생각 타코야끼&캔카페,음식점,37.50734097,127.0262529
6143,312,571496158,날날리신선육회연어,음식점,37.50718247,127.0258955
6144,312,357573296,핫 돼지 플레이스,음식점,37.50709603,127.0256285
6145,312,1492014256,킹크라운닭발 강남직영점,음식점,37.50699248,127.0253175
